소재지도로명주소,카메라대수,위도,경도,데이터기준일자,소재지지번주소,,,,,,,,구미동,133,구미동,133
경기도 성남시 분당구 서현로429번길 30,3,37.3767595,127.1449705,2018.4.1,경기도 성남시 분당구 분당동 108-1번지 맞은편,,,,,,,,분당동,140,분당동,140
경기도 성남시 분당구 예원로 7,2,37.371351,127.1337441,2018.4.1,경기도 성남시 분당구 분당동 45번지(동아빌라와 옴니빌라 사이),,,,,,,,,,백현동,127
,4,37.386671,127.115881,2018.4.1,경기도 성남시 분당구 백현동 606번지 물방울어린이공원 내부,,,,,,,,백현동,127,야탑동,184
,5,37.408131,127.142901,2018.4.1,경기도 성남시 분당구 야탑3동 197-2(버스정류장),,,,,,,,야탑동,184,금곡동,52
,4,37.405361,127.155231,2018.4.1,경기도 성남시 분당구 야탑동 159-8,,,,,,,,,,궁내동,24
"경기도 성남시 분당구 미금로 246, 후문(금곡동, 청솔마을주공6단지)",2,37.3541183,127.1111561,2018.4.1,경기도 성남시 분당구 금곡동 126번지 분당정보고등학교 후문,,,,,,,,금곡동,52,정자동,153
"경기도 성남시 분당구 금곡로 243, 청솔초등학교  (금곡동)",5,37.353881,127.113201,2018.4.1,경기도 성남시 분당구 금곡동 135번지 청솔초등학교 후문 보행자통로,,,,,,,,,,동원동,11
,2,37.3627979,127.1000821,2018.4.1,경기도 성남시 분당구 금곡동 104번지 낙생농협 앞,,,,,,,,,,판교동,103
"경기도 성남시 분당구 금곡로 243, 청솔초등학교  정문(금곡동)",3,37.3540659,127.1141706,2018.4.1,경기도 성남시 분당구 금곡동 131번지 청솔초등학교 정문,,,,,,,,,,태평동,219
,4,37.3515843,127.1066271,2018.4.1,경기도 성남시 분당구 금곡동 175번지 야생화어린이공원,,,,,,,,,,상대원,245
"경기도 성남시 분당구 궁내로22번길 32, 궁백교회  뒤(궁내동)",3,37.3713794,127.1010456,2018.4.1,경기도 성남시 분당구 궁내동 285-1번지 궁백교회 뒤,,,,,,,,궁내동,24,삼평동,136
,1,37.3633033,127.0967848,2018.4.1,경기도 성남시 분당구 금곡동 66-5,,,,,,,,,,율동,14
"경기도 성남시 분당구 미금로 215, (금곡동, 청솔마을대원8단지)",1,37.351218,127.1130175,2018.4.1,경기도 성남시 분당구 금곡동 141번지(즐거운유치원),,,,,,,,,,이매동,101
"경기도 성남시 분당구 쇳골로 35-1, 금곡동어린이놀이터  (금곡동)",4,37.3627217,127.0973343,2018.4.1,경기도 성남시 분당구 금곡동 46-6 금곡동어린이놀이터,,,,,,,,,,운중동,100
경기도 성남시 분당구 경부고속도로,2,37.363711,127.103539,2018.4.1,경기도 성남시 분당구 궁내동 184-12 경부고속도로 횡단 지하통로(정자로 방면),,,,,,,,정자동,153,수내동,108
,2,37.354204,127.109162,2018.4.1,경기도 성남시 분당구 금곡동 127-1 금곡지하보도(주공 607동앞),,,,,,,,,,오야동,21
,2,37.3701467,127.1007322,2018.4.1,경기도 성남시 분당구 궁내동 247번지 앞,,,,,,,,,,금광동,181
"경기도 성남시 분당구 궁내로40번길 11, 궁내동어린이놀이터  (궁내동)",3,37.3705898,127.097633,2018.4.1,경기도 성남시 분당구 궁내동 353번지 궁내동어린이놀이터,,,,,,,,,,하대원,83
,4,37.370331,127.101421,2018.4.1,경기도 성남시 분당구 궁내동 245번지,,,,,,,,,,은행동,179
,1,37.353661,127.113231,2018.4.1,경기도 성남시 분당구 금곡동 135번지 앞구미어린이공원 내부,,,,,,,,,,수진동,212
,4,37.370381,127.094011,2018.4.1,경기도 성남시 분당구 금곡동 365-10번지(궁내동 버스정류장),,,,,,,,,,단대동,79
"경기도 성남시 분당구 미금일로 21, (구미동, 하얀마을주공5단지)",2,37.344691,127.118431,2018.4.1,경기도 성남시 분당구 구미동 108번지 하얀마을5단지 하얀어린이공원 앞 보행자통로,,,,,,,,,,상적동,22
,3,37.3445618,127.1141408,2018.4.1,경기도 성남시 분당구 구미동 114번지 오리어린이공원(분당64호),,,,,,,,,,금토동,21
,5,37.3374543,127.1172977,2018.4.1,경기도 성남시 분당구 구미동 206번지 구미어린이공원(분당67호),,,,,,,,,,시흥동,28
,4,37.3412925,127.1119359,2018.4.1,경기도 성남시 분당구 구미동 193-1번지 오리공원,,,,,,,,,,사송동,9
,4,37.3431024,127.1246201,2018.4.1,경기도 성남시 분당구 구미동 281번지 골안어린이공원,,,,,,,,,,복정동,107
,4,37.3397938,127.1227763,2018.4.1,경기도 성남시 분당구 구미동 230번지 무지개어린이공원,,,,,,,,,,고등동,29
,4,37.3404815,127.1247868,2018.4.1,경기도 성남시 분당구 구미동 239번지 넘말어린이공원,,,,,,,,,,신촌동,23
,4,37.3402035,127.1260824,2018.4.1,경기도 성남시 분당구 구미동 252번지 큰골어린이공원,,,,,,,,,,심곡동,9
"경기도 성남시 분당구 무지개로 129, 불곡초등학교  주변(구미동)",3,37.3408553,127.1191788,2018.4.1,경기도 성남시 분당구 구미동 241번지 불곡초등학교 주변,,,,,,,,,,산성동,65
"경기도 성남시 분당구 구미로185번길 30, 대광사정문앞코너부분  (구미동)",3,37.346413,127.1272955,2018.4.1,경기도 성남시 분당구 구미동 295 대광사 정문 앞 코너부분,,,,,,,,,,신흥동,151
"경기도 성남시 분당구 탄천상로 89, 노블빌리지 105동  (구미동)",3,37.3395099,127.1112736,2018.4.1,경기도 성남시 분당구 구미동 187-9 노블빌리지 105동,,,,,,,,,,삼평동,106
,2,37.3346918,127.1153297,2018.4.1,경기도 성남시 분당구 구미동 209번지 진고개공원,,,,,,,,,,양지동,190
,1,37.3397455,127.1094274,2018.4.1,경기도 성남시 분당구 구미동 196번지(오리역 2번출구 부근 광장),,,,,,,,,,대장동,12
"경기도 성남시 분당구 구미로130번길 20, 성모유치원  (구미동)",4,37.3401373,127.1243484,2018.4.1,경기도 성남시 분당구 구미동 238번지(성모유치원),,,,,,,,,,도촌동,46
,1,37.345011,127.117941,2018.4.1,경기도 성남시 분당구 구미동 108번지 하얀어린이공원 내부,,,,,,,,,,,
"경기도 성남시 분당구 금곡로23번길 15-5, 수평어린이공원내부  (구미동)",1,37.344651,127.111001,2018.4.1,경기도 성남시 분당구 구미동 138번지 수평어린이공원 내부,,,,,,,,,,,
,2,37.4073396,127.1270171,2018.4.1,경기도 성남시 분당구 야탑2동 529번지 무잡모퉁이어린이공원(분당13호) 하탑초등학교 주변,,,,,,,,,,,
,4,37.3488017,127.118613,2018.4.1,경기도 성남시 분당구 구미1동 87번지 샘터어린이공원,,,,,,,,,,,
"경기도 성남시 분당구 미금일로 136, 508동 601호 동 사이(구미동, 까치마을건영5단지)",3,37.349365,127.111763,2018.4.1,경기도 성남시 분당구 구미1동 까치마을 건영빌라 508동 601동 사이 보행자도로,,,,,,,,,,,
"경기도 성남시 분당구 동원북로 26, 동원 1동  어린이놀이터(동원동)",1,37.3461579,127.098721,2018.4.1,경기도 성남시 분당구 동원동 110-4 동원1동어린이놀이터,,,,,,,,동원동,11,,
"경기도 성남시 분당구 동막로245번길 97, (동원동)",4,37.3590146,127.0798242,2018.4.1,경기도 성남시 분당구 동원동 222번지,,,,,,,,,,,
"경기도 성남시 분당구 미금일로80번길 5, (구미동)",1,37.3460774,127.1011217,2018.4.1,경기도 성남시 분당구 구미1동 58-3번지,,,,,,,,,,,
"경기도 성남시 분당구 미금로 151, 미금초등학교  (구미동)",5,37.3470948,127.1153504,2018.4.1,경기도 성남시 분당구 구미1동 68번지(미금초등학교),,,,,,,,,,,
,3,37.3766914,127.1246814,2018.4.1,경기도 성남시 분당구 구미1동 93번지,,,,,,,,,,,
,4,37.3489828,127.1112807,2018.4.1,경기도 성남시 분당구 구미1동 32번지 뒷구미어린이공원(분당59호),,,,,,,,,,,
"경기도 성남시 분당구 돌마로 138, 보도구미 지하층 119호 구미 옆(구미동)",2,37.3449596,127.1111542,2018.4.1,경기도 성남시 분당구 구미1동 71 구미지하보도(구미119 옆),,,,,,,,,,,
경기도 성남시 분당구 미금로 151,2,37.3481256,127.1152983,2018.4.1,경기도 성남시 분당구 구미1동 67번지 미금초등학교 후문(벌말공원),,,,,,,,,,,
"경기도 성남시 분당구 미금일로90번길 2, 시카센터 24호 (구미동)",2,37.3461172,127.1100702,2018.4.1,경기도 성남시 분당구 구미1동 54-6번지 24시카센타 앞 사거리,,,,,,,,,,,
"경기도 성남시 분당구 동원북로 33, (동원동)",4,37.345891,127.110351,2018.4.1,경기도 성남시 분당구 구미1동 96-5번지,,,,,,,,,,,
,3,37.3510827,127.118161,2018.4.1,경기도 성남시 분당구 구미1동 73번지 까치마을어린이공원,,,,,,,,,,,
,1,37.3912181,127.0896065,2018.4.1,경기도 성남시 분당구 판교동 615-7번지 F6-1블럭 주택지역 내 24시간 편의점 옆,,,,,,,,판교동,103,,
,1,37.3913697,127.0904382,2018.4.1,경기도 성남시 분당구 판교동 614-11번지 F6-1블럭 주택지역 내 판교 도서관 맞은편,,,,,,,,,,,
,1,37.3912518,127.0910088,2018.4.1,경기도 성남시 분당구 판교동 612번지 F7-1블럭 주택지역 내 판교 도서관 맞은편,,,,,,,,,,,
,1,37.3905322,127.0893203,2018.4.1,경기도 성남시 분당구 판교동 618-11번지 F6-1블럭 주택지역 내 음식점(리강) 옆,,,,,,,,,,,
"경기도 성남시 수정구 제일로188번길 15-11, (태평동)",1,37.4440148,127.1319293,2018.4.1,경기도 성남시 수정구 태평3동 3745-17,,,,,,,,태평동,219,,
,1,37.415241,127.137411,2018.4.1,경기도 성남시 분당구 야탑3동 206번지 연꽃어린이공원 내부,,,,,,,,,,,
"경기도 성남시 분당구 미금일로79번길 6, 수평어린이공원분당 65호 주변(구미동)",2,37.345338,127.1107418,2018.4.1,경기도 성남시 분당구 구미동 143-3번지 수평어린이공원(분당65호) 주변,,,,,,,,,,,
,5,37.4145775,127.1260792,2018.4.1,경기도 성남시 분당구 야탑1동 332번지 꿈동산어린이공원(분당1호),,,,,,,,,,,
"경기도 성남시 중원구 희망로 327, 부근  (상대원동)",3,37.4350947,127.1579843,2018.4.1,경기도 성남시 중원구 상대원2동 4759 부근,,,,,,,,상대원,245,,
"경기도 성남시 중원구 박석로 78, 주민센터  주차장 부근(상대원동)",3,37.4396958,127.1654869,2018.4.1,경기도 성남시 중원구 상대원3동 856 주민센터주차장 부근,,,,,,,,,,,
"경기도 성남시 분당구 새마을로1번길 3, 솔밭어린이공원  (서현동)",3,37.3844871,127.1305004,2018.4.1,경기도 성남시 분당구 서현1동 78-4번지 솔밭어린이공원,,,,,,,,삼평동,136,,
"경기도 성남시 분당구 중앙공원로32번길 20, 분당초등학교  주변(서현동)",3,37.3786276,127.1298147,2018.4.1,경기도 성남시 분당구 서현1동 92-1번지 분당초등학교 주변,,,,,,,,,,,
"경기도 성남시 분당구 중앙공원로39번길 12, 서현초등학교  주변(서현동)",3,37.3824537,127.1284802,2018.4.1,경기도 성남시 분당구 서현1동 87-1번지 서현초등학교 주변,,,,,,,,,,,
"경기도 성남시 분당구 서현로237번길 7, (서현동)",3,37.3858623,127.1282472,2018.4.1,경기도 성남시 분당구 서현1동 85-4번지,,,,,,,,,,,
"경기도 성남시 분당구 서현로255번길 7, (서현동)",3,37.3848259,127.1296425,2018.4.1,경기도 성남시 분당구 서현1동 80-4번지,,,,,,,,,,,
,1,37.3822533,127.1521413,2018.4.1,경기도 성남시 분당구 율동 323-15 율동어린이놀이터,,,,,,,,율동,14,,
"경기도 성남시 분당구 안골로 42, (서현동)",1,37.3855916,127.1362579,2018.4.1,경기도 성남시 분당구 서현1동 188-18번지,,,,,,,,,,,
"경기도 성남시 분당구 문정로 145, 율동공원  (율동)",4,37.3820866,127.1509352,2018.4.1,경기도 성남시 분당구 율동 318 율동공원,,,,,,,,,,,
"경기도 성남시 분당구 중앙공원로31번길 32, 중앙유치원  (서현동)",1,37.3824028,127.1260124,2018.4.1,경기도 성남시 분당구 서현1동 89-4번지(중앙유치원),,,,,,,,,,,
,5,37.382561,127.134051,2018.4.1,경기도 성남시 분당구 서현1동 240-39번지 맞은편,,,,,,,,,,,
"경기도 성남시 분당구 서현로 216, (서현동)",4,37.386251,127.126451,2018.4.1,경기도 성남시 분당구 서현1동 245-1번지,,,,,,,,,,,
"경기도 성남시 분당구 불정로406번길 17, 양영초등학교 35호 양영어린이공원 분당 주변(서현동)",3,37.376033,127.134598,2018.4.1,경기도 성남시 분당구 서현2동 317-9번지 양영어린이공원(분당35호) 양영초등학교 주변,,,,,,,,,,,
"경기도 성남시 분당구 불정로 432, 부근  (서현동)",2,37.3773426,127.1412941,2018.4.1,경기도 성남시 분당구 서현2동 338-1번지 부근,,,,,,,,,,,
,3,37.3710712,127.1360062,2018.4.1,경기도 성남시 분당구 서현2동 309번지 미래어린이공원(분당37호),,,,,,,,,,,
"경기도 성남시 분당구 서현로393번길 8, (서현동)",4,37.3758825,127.1413777,2018.4.1,경기도 성남시 분당구 서현2동 340-19번지,,,,,,,,,,,
"경기도 성남시 분당구 불정로406번길 17, 양영초등학교  주변(서현동)",4,37.3746985,127.1396401,2018.4.1,경기도 성남시 분당구 서현2동 319번지 양영초등학교 주변,,,,,,,,,,,
"경기도 성남시 분당구 서현로357번길 8, (서현동)",3,37.3782103,127.1387889,2018.4.1,경기도 성남시 분당구 서현2동 329-1번지 앞,,,,,,,,,,,
"경기도 성남시 분당구 불정로426번길 5, (서현동)",3,37.3766601,127.1410802,2018.4.1,경기도 성남시 분당구 서현2동 336-5번지 앞,,,,,,,,,,,
"경기도 성남시 분당구 불정로420번길 19, (서현동)",3,37.3754788,127.1417294,2018.4.1,경기도 성남시 분당구 서현2동 340-5번지 앞,,,,,,,,,,,
"경기도 성남시 분당구 서현로371번길 13, (서현동)",1,37.3777576,127.1401183,2018.4.1,경기도 성남시 분당구 서현2동 330-7번지,,,,,,,,,,,
,3,37.3724769,127.1405197,2018.4.1,경기도 성남시 분당구 서현동 314-1 수련어린이공원,,,,,,,,,,,
,3,37.3766914,127.1246814,2018.4.1,경기도 성남시 분당구 서현2동 346-11번지,,,,,,,,,,,
경기도 성남시 분당구 삼거리,5,37.378761,127.137291,2018.4.1,경기도 성남시 분당구 서현2동 343-2 삼거리,,,,,,,,,,,
"경기도 성남시 분당구 서현로411번길 7, (서현동)",3,37.375281,127.142571,2018.4.1,경기도 성남시 분당구 서현2동 340-11,,,,,,,,,,,
,2,37.3907334,127.1372605,2018.4.1,경기도 성남시 분당구 이매1동 338-1번지 베스티아 부근,,,,,,,,이매동,101,,
,3,37.391276,127.1339472,2018.4.1,경기도 성남시 분당구 이매1동 301-7번지 갈보리교회(갈보리어린이집),,,,,,,,,,,
,3,37.3976095,127.1319332,2018.4.1,경기도 성남시 분당구 이매1동 65번지 부근,,,,,,,,,,,
"경기도 성남시 분당구 이매로123번길 12, 부근(이매동, 이매포스파크)",5,37.3917449,127.134232,2018.4.1,경기도 성남시 분당구 이매1동 293-4번지 포스파크 부근,,,,,,,,,,,
,2,37.3869211,127.1279294,2018.4.1,경기도 성남시 분당구 이매1동 128-7번지 돌마공원 화장실 주변,,,,,,,,,,,
"경기도 성남시 분당구 양현로 104, 안말초등학교  정문(이매동)",2,37.3928805,127.1255436,2018.4.1,경기도 성남시 분당구 이매1동 118번지 안말초등학교 정문,,,,,,,,,,,
"경기도 성남시 분당구 양현로 146, 이매초등학교  정문(이매동)",2,37.3967556,127.1260563,2018.4.1,경기도 성남시 분당구 이매1동 112번지 이매초등학교 정문,,,,,,,,,,,
,4,37.3977294,127.1257899,2018.4.1,경기도 성남시 분당구 이매1동 114번지 방아다리어린이공원(분당23호),,,,,,,,,,,
"경기도 성남시 분당구 방아로 42, (이매동)",3,37.3985685,127.1335239,2018.4.1,경기도 성남시 분당구 이매1동 81-8번지 (샛별선교원앞 삼거리),,,,,,,,,,,
"경기도 성남시 분당구 이매로 88, 동명유치원  (이매동)",4,37.3933092,127.1300553,2018.4.1,경기도 성남시 분당구 이매1동 262-2번지(동명유치원),,,,,,,,,,,
"경기도 성남시 분당구 양현로 220, (이매동, 이매촌삼성10단지)",5,37.402897,127.1267487,2018.4.1,경기도 성남시 분당구 이매1동 100번지(꾸러기유치원),,,,,,,,,,,
"경기도 성남시 분당구 이매로124번길 15, (이매동)",4,37.3911145,127.1317053,2018.4.1,경기도 성남시 분당구 이매1동 357-18번지,,,,,,,,,,,
"경기도 성남시 분당구 이매로133번길 16, (이매동, 진흥아마란스)",3,37.3766914,127.1246814,2018.4.1,경기도 성남시 분당구 이매1동 308번지 등산로입구,,,,,,,,,,,
"경기도 성남시 분당구 양현로 192, 1010동 지하층  태원보도  앞(이매동, 이매촌삼성10단지)",2,37.402897,127.1267487,2018.4.1,경기도 성남시 분당구 이매1동 127-2번지 태원지하보도(삼성아파트 1010동 앞),,,,,,,,,,,
"경기도 성남시 분당구 방아로46번길 21-10, (이매동)",4,37.396631,127.134711,2018.4.1,경기도 성남시 분당구 이매1동 49-2번지,,,,,,,,,,,
"경기도 성남시 분당구 이매로89번길 16, (이매동)",3,37.394001,127.131711,2018.4.1,경기도 성남시 분당구 이매1동 268-12,,,,,,,,,,,
"경기도 성남시 분당구 방아로 50, (이매동)",3,37.399151,127.134261,2018.4.1,경기도 성남시 분당구 이매1동 27번지,,,,,,,,,,,
,2,37.3931342,127.1222566,2018.4.1,경기도 성남시 분당구 이매2동 148번지 이매길어린이공원(분당24호),,,,,,,,,,,
,3,37.4025069,127.1230174,2018.4.1,경기도 성남시 분당구 이매2동 134번지 아름어린이공원(분당21호) 매송초등학교 주변,,,,,,,,,,,
,1,37.4035458,127.1237397,2018.4.1,경기도 성남시 분당구 이매2동 152-7번지 운중천 둔치주변 이매파출소 앞,,,,,,,,운중동,100,,
,4,37.3950296,127.1221561,2018.4.1,경기도 성남시 분당구 이매2동 146번지 이매고등학교 입구,,,,,,,,,,,
경기도 성남시 분당구 탄천로 97,3,37.4017034,127.1228815,2018.4.1,경기도 성남시 분당구 이매2동 136번지 매송초등학교 주변,,,,,,,,,,,
경기도 성남시 분당구 보행자도로,3,37.4158894,127.1309837,2018.4.1,경기도 성남시 분당구 야탑1동 399-2번지 보행자도로,,,,,,,,,,,
,2,37.4140037,127.1304269,2018.4.1,경기도 성남시 분당구 야탑1동 340번지 야탑어린이공원(분당3호),,,,,,,,,,,
"경기도 성남시 분당구 매화로37번길 13-11, 부근  (야탑동)",3,37.4111509,127.1318057,2018.4.1,경기도 성남시 분당구 야탑1동 388-2번지 부근,,,,,,,,,,,
"경기도 성남시 분당구 야탑로111번길 12-14, 탑어린이공원  (야탑동)",4,37.4118521,127.1322281,2018.4.1,경기도 성남시 분당구 야탑1동 385번지 탑어린이공원,,,,,,,,,,,
"경기도 성남시 분당구 내정로166번길 43, 동코아앞(수내동)",1,37.3705613,127.1229332,2018.4.1,경기도 성남시 수내2동 63-1 동신코아앞,,,,,,,,수내동,108,,
경기도 성남시 분당구 옆보행자도로,3,37.4116682,127.1302593,2018.4.1,경기도 성남시 분당구 야탑1동 365번지 옆 보행자도로,,,,,,,,,,,
"경기도 성남시 분당구 야탑로75번길 15, (야탑동)",3,37.4111742,127.1268318,2018.4.1,경기도 성남시 분당구 야탑1동 355-1번지 옆 보행자도로,,,,,,,,,,,
"경기도 성남시 분당구 장미로48번길 14, (야탑동)",1,37.4126511,127.1255016,2018.4.1,경기도 성남시 분당구 야탑1동 342-3번지,,,,,,,,,,,
"경기도 성남시 분당구 성남대로 920, (야탑동)",1,37.4118544,127.1292425,2018.4.1,경기도 성남시 분당구 야탑1동 364-2번지,,,,,,,,,,,
"경기도 성남시 분당구 성남대로 919, (야탑동)",1,37.4117638,127.1281472,2018.4.1,경기도 성남시 분당구 야탑1동 359-5번지,,,,,,,,,,,
"경기도 성남시 분당구 매화로37번길 5, 성마르코유치원  (야탑동)",1,37.4162652,127.1259045,2018.4.1,경기도 성남시 분당구 야탑1동 389번지 성마르코유치원,,,,,,,,,,,
"경기도 성남시 분당구 장미로108번길 13-1, 맞은편  (야탑동)",3,37.3766914,127.1246814,2018.4.1,경기도 성남시 분당구 야탑1동 383-6번지 맞은편,,,,,,,,,,,
"경기도 성남시 분당구 성남대로925번길 16, 버스출입구  (야탑동)",3,37.412391,127.126981,2018.4.1,경기도 성남시 분당구 야탑1동 341번지(탄천방향 장미로 버스 출입구),,,,,,,,,,,
,2,37.4083528,127.1363293,2018.4.1,경기도 성남시 분당구 야탑2동 521번지 탑골어린이공원(분당16호),,,,,,,,,,,
,2,37.4065842,127.1232851,2018.4.1,경기도 성남시 분당구 야탑2동 534번지 종달새어린이공원(분당11호),,,,,,,,,,,
,2,37.4077388,127.1310191,2018.4.1,경기도 성남시 분당구 야탑2동 524번지 무장들어린이공원(분당15호),,,,,,,,,,,
,3,37.4079394,127.1268844,2018.4.1,경기도 성남시 분당구 야탑2동 509번지 오야소어린이공원(분당12호),,,,,,,,오야동,21,,
경기도 성남시 분당구 야탑로 96-7,3,37.4090206,127.130117,2018.4.1,경기도 성남시 분당구 야탑2동 515번지 돌마초등학교 주변,,,,,,,,,,,
경기도 성남시 분당구 야탑로 20,1,37.4076944,127.1212913,2018.4.1,경기도 성남시 분당구 야탑2동 536번지(늘사랑어린이집),,,,,,,,,,,
,3,37.3766914,127.1246814,2018.4.1,경기도 성남시 분당구 야탑2동 538번지 108동 111동 사이,,,,,,,,,,,
,2,37.382821,127.118925,2018.4.1,경기도 성남시 분당구 야탑2동 540-4번지 하탑지하보도(탑마을 511동 앞),,,,,,,,,,,
,4,37.407751,127.128731,2018.4.1,경기도 성남시 분당구 야탑9교,,,,,,,,,,,
"경기도 성남시 분당구 돌마로 866, 성은특수학교  (야탑동)",4,37.4090454,127.1444121,2018.4.1,경기도 성남시 분당구 야탑3동 172번지 성은특수학교,,,,,,,,,,,
"경기도 성남시 분당구 장미로148번길 5, 부근  (야탑동)",3,37.4125699,127.1373885,2018.4.1,경기도 성남시 분당구 야탑3동 277-9번지 부근,,,,,,,,,,,
"경기도 성남시 분당구 판교로572번길 9, 영덕여고부근  (야탑동)",3,37.4071835,127.1378821,2018.4.1,경기도 성남시 분당구 야탑3동 493-8번지 영덕여고 부근,,,,,,,,,,,
,3,37.4110531,127.141276,2018.4.1,경기도 성남시 분당구 야탑3동 271번지 상희공원 부근,,,,,,,,,,,
"경기도 성남시 분당구 매화로48번길 17-4, 중탑어린이공원분당 9호 (야탑동)",5,37.4118925,127.1363041,2018.4.1,경기도 성남시 분당구 야탑3동 301번지 중탑어린이공원(분당9호),,,,,,,,,,,
"경기도 성남시 분당구 벌말로 68, 중탑초등학교  정문(야탑동)",2,37.4136947,127.1394636,2018.4.1,경기도 성남시 분당구 야탑3동 212번지 중탑초등학교 정문,,,,,,,,,,,
"경기도 성남시 분당구 판교로743번길 6, (야탑동)",2,37.405935,127.1555488,2018.4.1,경기도 성남시 분당구 야탑3동 192-1번지,,,,,,,,,,,
,4,37.4071935,127.1441091,2018.4.1,경기도 성남시 분당구 야탑3동 164번지 신일어린이공원,,,,,,,,,,,
,3,37.4078383,127.1391902,2018.4.1,경기도 성남시 분당구 야탑3동 167번지 목련어린이공원,,,,,,,,,,,
,3,37.4140242,127.1403862,2018.4.1,경기도 성남시 분당구 야탑3동 213-1번지 숲속어린이공원,,,,,,,,,,,
"경기도 성남시 분당구 판교로552번길 26-1, (야탑동)",3,37.4066767,127.1372643,2018.4.1,경기도 성남시 분당구 야탑3동 472-3번지,,,,,,,,,,,
,1,37.4146908,127.1374109,2018.4.1,경기도 성남시 분당구 야탑3동 214-1 매향어린이공원,,,,,,,,,,,
,1,37.4154567,127.1411012,2018.4.1,경기도 성남시 분당구 야탑3동 208 새싹어린이공원,,,,,,,,,,,
"경기도 성남시 분당구 돌마로486번길 7, 209동 지하층  서당보도  앞(서현동, 효자촌동아2단지)",2,37.3777807,127.1355449,2018.4.1,경기도 성남시 분당구 서현2동 343-3번지 서당지하보도(동아아파트 209동 앞),,,,,,,,,,,
"경기도 성남시 분당구 판교로 624-1, 배성유치원  (야탑동)",1,37.4061324,127.1423122,2018.4.1,경기도 성남시 분당구 야탑3동 397번지(배성유치원),,,,,,,,,,,
"경기도 성남시 분당구 양현로 515, 뽀뽀뽀유치원  (야탑동)",4,37.4150272,127.138813,2018.4.1,경기도 성남시 분당구 야탑3동 207-2번지(뽀뽀뽀유치원),,,,,,,,,,,
"경기도 성남시 분당구 판교로562번길 1, (야탑동)",4,37.407081,127.135721,2018.4.1,경기도 성남시 분당구 야탑3동 480-2번지,,,,,,,,,,,
"경기도 성남시 중원구 희망로406번길 19, (금광동)",1,37.4425385,127.1619696,2018.4.1,경기도 성남시 중원구 금광1동 543,,,,,,,,금광동,181,,
"경기도 성남시 중원구 둔촌대로401번길 2, 5동  (상대원동, 국제맨션5차)",1,37.4335782,127.1617011,2018.4.1,경기도 성남시 중원구 상대원1동 1749(건물 부착),,,,,,,,,,,
"경기도 성남시 중원구 희망로353번길 28, (상대원동)",1,37.4373755,127.1550312,2018.4.1,경기도 성남시 중원구 상대원2동 3956,,,,,,,,,,,
"경기도 성남시 중원구 둔촌대로258번길 7, 성남방송고등학교 161호 담 번지 맞은편 전(하대원동)",1,37.4274696,127.1475589,2018.4.1,경기도 성남시 중원구 하대원동 153 성남방송고교 담 (161번지 맞은편 전주),,,,,,,,하대원,83,,
,1,37.403257,127.092432,2018.4.1,경기도 성남시 분당구 판교동 480-5번지 E13-1블럭 내 (경부고속도로 방향),,,,,,,,,,,
"경기도 성남시 분당구 서판교로180번길 3-3, 내자립형고등학교 E13동  방향(판교동)",1,37.4019685,127.0933156,2018.4.1,경기도 성남시 분당구 판교동 491-2번지 E13-1블럭 내 (자립형 고등학교 방향),,,,,,,,,,,
,1,37.4016558,127.0953909,2018.4.1,경기도 성남시 분당구 판교동 500-8번지 E13-1블럭 내부 삼평고(가칭) 후문방향,,,,,,,,,,,
"경기도 성남시 분당구 판교역로 75, 낙생대공원내부  팔각정 입구(백현동)",1,37.3868947,127.1061234,2018.4.1,경기도 성남시 분당구 백현동 523번지 낙생대 공원 내부 팔각정 입구 사거리,,,,,,,,,,,
"경기도 성남시 분당구 판교역로 75, 생태공원내부 2호 (백현동)",1,37.3868947,127.1061234,2018.4.1,경기도 성남시 분당구 백현동 523번지 생태공원 내부 (2),,,,,,,,,,,
"경기도 성남시 분당구 판교역로14번길 42, 신백현초후문변경전 566동 3호 : 백현동 번지(백현동)",3,37.3872477,127.1119429,2018.4.1,경기도 성남시 분당구 백현동 559번지 신백현초 후문(변경전 : 백현동 566-3번지),,,,,,,,,,,
"경기도 성남시 분당구 판교역로18번길 30, 맞은편변경전:백현동 600동 5호 번지(백현동)",1,37.3862453,127.1110003,2018.4.1,경기도 성남시 분당구 백현동 565번지 맞은편(변경전 : 백현동 600-5번지),,,,,,,,,,,
"경기도 성남시 분당구 판교원로81번길 15, 뒷편 운중천변 운중공원 입구(운중동, 산운마을대광로제비앙10단지)",3,37.3903045,127.0732102,2018.4.1,경기도 성남시 분당구 운중동 953번지 산운마을 10단지 뒷편(운중천변) 운중공원 입구,,,,,,,,,,,
,1,37.3897387,127.1017312,2018.4.1,경기도 성남시 판교동 651-1번지 낙생고앞,,,,,,,,,,,
"경기도 성남시 분당구 판교역로 152, 상행  (백현동)",1,37.3801584,127.091844,2018.4.1,경기도 성남시 백현동 537번지 환승주차장삼거리-상행,,,,,,,,,,,
경기도 성남시 분당구 내보행자출입로,1,37.390654,127.082647,2018.4.1,경기도 성남시 분당구 운중동 1027-6번지 F4-1블럭 주택지역 내 보행자 출입로 입구,,,,,,,,,,,
"경기도 성남시 분당구 운중로166번길 19-13, 운중천운중천육교앞 E6동  (운중동)",1,37.3891917,127.0822771,2018.4.1,경기도 성남시 분당구 운중동 1035-7번지 E6-1블럭 보행자통로(운중천 운중천육교) 앞,,,,,,,,,,,
"경기도 성남시 분당구 판교원로82번길 60, 1412동  앞 두밀공원 내(운중동, 산운마을경남아너스빌14단지)",1,37.3835428,127.0719326,2018.4.1,경기도 성남시 분당구 운중동 915번지 산운마을 14단지(1412동) 앞 두밀공원 내,,,,,,,,,,,
"경기도 성남시 중원구 둔촌대로 274, (하대원동, 태연스카이빌)",1,37.4287935,127.1488398,2018.4.1,경기도 성남시 하대원동 143-1,,,,,,,,,,,
"경기도 성남시 중원구 원터로 25, 검단초등학교  주변(하대원동)",1,37.4293045,127.1437073,2018.4.1,경기도 성남시 하대원동 123번지 검단초등학교 주변,,,,,,,,,,,
"경기도 성남시 중원구 산성대로372번길 14, (금광동)",1,37.4447193,127.158582,2018.4.1,경기도 성남시 금광2동 11,,,,,,,,,,,
"경기도 성남시 중원구 은행로 6, 상원초등학교  주변(은행동)",1,37.4540241,127.1625936,2018.4.1,경기도 성남시 은행1동 421번지 상원초등학교 주변,,,,,,,,은행동,179,,
,1,37.4449422,127.1791343,2018.4.1,경기도 성남시 상대원1동 124-9,,,,,,,,,,,
"경기도 성남시 중원구 순환로214번길 16, 상대원초등학교  주변(상대원동)",1,37.442221,127.180953,2018.4.1,경기도 성남시 상대원1동 54번지 상대원초등학교 주변,,,,,,,,,,,
"경기도 성남시 분당구 동판교로 59, 율곡초등학교  (백현동)",1,37.3801157,127.0994353,2018.4.1,경기도 성남시 백현동 551번지 백현사거리 율곡초교,,,,,,,,,,,
"경기도 성남시 수정구 남문로 112, 금빛초등학교  (태평동)",3,37.4472692,127.1400052,2018.4.1,경기도 성남시 수정구 태평4동 7289번지 금빛초등학교,,,,,,,,,,,
"경기도 성남시 수정구 남문로 112, (태평동)",3,37.4472692,127.1400052,2018.4.1,경기도 성남시 수정구 태평4동 7289번지(금빛초정문앞사거리),,,,,,,,,,,
"경기도 성남시 수정구 남문로145번길 7-1, (태평동)",1,37.4491419,127.1421263,2018.4.1,경기도 성남시 수정구 태평4동 2084번지,,,,,,,,,,,
"경기도 성남시 수정구 남문로 112, 금빛초등학교  (태평동)",4,37.4472692,127.1400052,2018.4.1,경기도 성남시 수정구 태평4동 7289번지(금빛초등학교),,,,,,,,,,,
"경기도 성남시 수정구 공원로409번길 10-10, 맞은편  (태평동)",3,37.447221,127.143231,2018.4.1,경기도 성남시 수정구 태평4동 7302-12번지 맞은편,,,,,,,,,,,
"경기도 성남시 수정구 수정남로 54-1, 사팔구공인중개사부근  (수진동)",5,37.4406114,127.1338551,2018.4.1,경기도 성남시 수정구 수진1동 311번지 사팔구공인중개사부근,,,,,,,,수진동,212,,
"경기도 성남시 중원구 성남대로1148번길 31, (성남동)",2,37.4331168,127.1326056,2018.4.1,경기도 성남시 중원구 성남동 3273번지,,,,,,,,,,,
"경기도 성남시 중원구 원터로93번길 25-12, C동  (성남동, 금호빌라)",3,37.433597,127.1412087,2018.4.1,경기도 성남시 중원구 성남동 3014번지,,,,,,,,,,,
,1,37.4003236,127.0975341,2018.4.1,경기도 성남시 분당구 판교동 523-9번지 E12-1블럭 내 자동크린넷 앞 (판교로 방면),,,,,,,,,,,
경기도 성남시 분당구 운중로45번길 8,4,37.3932106,127.0762227,2018.4.1,경기도 성남시 분당구 운중동 892-11번지 운중초등학교 정문 뒤,,,,,,,,,,,
경기도 성남시 분당구 도로,1,37.388566,127.0696909,2018.4.1,경기도 성남시 분당구 운중동 903-2번지 E2-2블럭 보행자출입구 도로 건너편,,,,,,,,,,,
경기도 성남시 분당구 보행자출입로,1,37.3923805,127.0703295,2018.4.1,경기도 성남시 분당구 운중동 956-1번지 체육1공원 내 (산운마을 8단지 보행자출입로 앞),,,,,,,,,,,
"경기도 성남시 분당구 산운로 97, 뒷편 아래(운중동, 산운마을한성필하우스5단지)",1,37.3938401,127.0721054,2018.4.1,경기도 성남시 분당구 운중동 989번지 산운마을 5단지 뒷편 (외곽순환도로 아래),,,,,,,,,,,
"경기도 성남시 분당구 판교원로 68, 건너편 보행자육교 입구(운중동, 산운마을주공휴먼시아11단지)",1,37.3897408,127.0716351,2018.4.1,경기도 성남시 분당구 운중동 921-2번지 산운마을 11단지 도로 건너편 보행자육교 입구,,,,,,,,,,,
,1,37.3920087,127.0839204,2018.4.1,경기도 성남시 분당구 운중동 1009번지 E5-1블럭 주택지역 내,,,,,,,,,,,
경기도 성남시 분당구 성남대로779번길 15,1,37.3988602,127.1266383,2018.4.1,경기도 성남시 이매2동 106-4 이매119 건너편,,,,,,,,,,,
"경기도 성남시 분당구 탄천로 97, 매송초등학교  주변(이매동)",1,37.4018892,127.1228619,2018.4.1,경기도 성남시 이매2동 136번지 매송초등학교 주변,,,,,,,,,,,
"경기도 성남시 중원구 성남대로997번길 51-14, (여수동)",1,37.4170227,127.1257281,2018.4.1,경기도 성남시 여수동 309,,,,,,,,,,,
"경기도 성남시 분당구 장안로51번길 10, 장안초등학교  동 주변(분당동)",1,37.372451,127.144321,2018.4.1,경기도 성남시 분당동 91번지 장안초등학교 주변,,,,,,,,,,,
"경기도 성남시 분당구 황새울로200번길 9-7, 판테온부근  (수내동)",1,37.3777825,127.1117674,2018.4.1,경기도 성남시 수내1동 21-3 판테온부근,,,,,,,,,,,
"경기도 성남시 분당구 산운로 121, 뒷편 청계공원 내(운중동, 산운마을주공휴먼시아6단지)",1,37.3964263,127.0787416,2018.4.1,경기도 성남시 분당구 운중동 990번지 산운마을 6단지 뒷편 청계공원 내,,,,,,,,,,,
경기도 성남시 분당구 내소도로,1,37.3884543,127.0844104,2018.4.1,경기도 성남시 분당구 운중동 1047-7번지 E6-2블럭 주택지역 내 소도로 및 보행자출입구(쓰레기 투입구),,,,,,,,,,,
"경기도 성남시 분당구 판교로 441, 남서울프라자  국민은행앞(야탑동)",1,37.4057237,127.1227655,2018.4.1,경기도 성남시 야탑2동 533-5 남서울프라자 국민은행앞,,,,,,,,,,,
"경기도 성남시 분당구 양현로 262, 하탑초등학교  주변(야탑동)",1,37.4073625,127.1261818,2018.4.1,경기도 성남시 야탑2동 531번지 하탑초등학교 주변,,,,,,,,,,,
"경기도 성남시 분당구 돌마로 79, 썬프라자 2호 미금역번출구(금곡동)",1,37.350078,127.108952,2018.4.1,경기도 성남시 금곡동 153 미금역2번출구 썬프라자,,,,,,,,,,,
경기도 성남시 분당구 쇳골입구삼거리,1,37.362877,127.1022367,2018.4.1,경기도 성남시 금곡동 90-4번지 국지도23호쇳골입구삼거리,,,,,,,,,,,
"경기도 성남시 수정구 수정남로30번길 15, (수진동)",3,37.4386353,127.1319109,2018.4.1,경기도 성남시 수정구 수진2동 3483번지,,,,,,,,,,,
"경기도 성남시 중원구 둔촌대로83번길 4, (성남동)",3,37.4305576,127.1284086,2018.4.1,경기도 성남시 중원구 성남동 4177번지,,,,,,,,,,,
경기도 성남시 중원구 중원도서관앞삼거리,4,37.4297442,127.1402736,2018.4.1,경기도 성남시 중원구 성남동 1486번지 중원도서관 앞 삼거리,,,,,,,,,,,
"경기도 성남시 중원구 둔촌대로69번길 10-15, 모란시장  기름집(성남동)",3,37.4309072,127.1276909,2018.4.1,경기도 성남시 중원구 성남동 4226번지 모란시장 기름집,,,,,,,,,,,
"경기도 성남시 중원구 제일로43번길 18-9, (성남동)",3,37.430251,127.134681,2018.4.1,경기도 성남시 중원구 성남동 3912번지,,,,,,,,,,,
"경기도 성남시 중원구 광명로 111, (성남동)",4,37.436201,127.141121,2018.4.1,경기도 성남시 중원구 성남동 2179번지,,,,,,,,,,,
"경기도 성남시 중원구 성남대로1148번길 18, (성남동)",5,37.432631,127.131061,2018.4.1,경기도 성남시 중원구 성남동 3428번지,,,,,,,,,,,
"경기도 성남시 중원구 광명로242번길 20, 공영주차장옥상축복어린이놀이터 4호 제(중앙동)",1,37.4406507,127.1545149,2018.4.1,경기도 성남시 중원구 중앙동 2169번지 제4공영주차장 옥상 축복어린이놀이터,,,,,,,,,,,
"경기도 성남시 중원구 광명로256번길 3-5, (중앙동)",1,37.442686,127.1554462,2018.4.1,경기도 성남시 중원구 중앙동 2041번지 골목길,,,,,,,,,,,
"경기도 성남시 중원구 금상로57번길 7-3, 마흔쟁이어린이놀이터  (상대원동)",5,37.4405776,127.1619537,2018.4.1,경기도 성남시 중원구 상대원2동 2992-4번지 마흔쟁이어린이놀이터,,,,,,,,,,,
"경기도 성남시 중원구 희망로392번길 9, 호프집앞  (상대원동)",3,37.4401219,127.160618,2018.4.1,경기도 성남시 중원구 상대원2동 2991-13번지(호프집 앞),,,,,,,,,,,
"경기도 성남시 중원구 희망로327번길 26, 1동  (상대원동)",3,37.4351509,127.1552085,2018.4.1,경기도 성남시 중원구 상대원2동 4954번지,,,,,,,,,,,
,3,37.440131,127.159131,2018.4.1,경기도 성남시 중원구 상대원2동 3001-3번지,,,,,,,,,,,
"경기도 성남시 중원구 금상로58번길 22, 대일초등학교  부근(상대원동)",2,37.4386682,127.1639486,2018.4.1,경기도 성남시 중원구 상대원3동 2511 대일초등학교 부근,,,,,,,,,,,
경기도 성남시 분당구 내소도로,1,37.3996022,127.0970261,2018.4.1,경기도 성남시 분당구 판교동 519-8번지 E12-1블럭 내 소도로 (낙원중학교 앞),,,,,,,,,,,
,2,37.386901,127.115741,2018.4.1,경기도 성남시 분당구 백현동 606번지 물방울어린이공원 내부(변경전 : 백현동 646번지),,,,,,,,,,,
"경기도 성남시 분당구 동판교로52번길 14-7, 입구변경전 634동 4호 : 백현동 번지(백현동)",1,37.3867145,127.1135952,2018.4.1,경기도 성남시 분당구 백현동 595번지 보행자도로 입구(변경전 : 백현동 634-4번지),,,,,,,,,,,
"경기도 성남시 분당구 동판교로52번길 21-3, 입구변경전 628동 12호 : 백현동 번지(백현동)",1,37.3860959,127.1140693,2018.4.1,경기도 성남시 분당구 백현동 590-3번지 보행자도로 입구(변경전 : 백현동 628-12번지),,,,,,,,,,,
"경기도 성남시 분당구 판교역로 100, 상가 앞(백현동, 백현마을6단지주공아파트)",1,37.3905941,127.1111992,2018.4.1,경기도 성남시 분당구 백현동 554-3번지 백현마을 6단지 상가 앞,,,,,,,,,,,
"경기도 성남시 분당구 판교역로 49, 뒷편 낙생대공원 체육공원 내부(백현동, 백현마을9단지E편한세상아파트)",1,37.3868947,127.1061234,2018.4.1,경기도 성남시 분당구 백현동 523번지 백현마을 9단지 뒷편(낙생대공원) 체육공원 내부,,,,,,,,,,,
"경기도 성남시 분당구 발이봉로 17, (수내동)",1,37.3647201,127.1281961,2018.4.1,경기도 성남시 분당구 수내3동 110번지 녹색경로당앞 사거리,,,,,,,,,,,
"경기도 성남시 분당구 발이봉남로 39, (수내동)",4,37.3629716,127.1285791,2018.4.1,경기도 성남시 분당구 수내3동 109-1번지,,,,,,,,,,,
"경기도 성남시 분당구 백현로243번길 12, 수내초등학교  아름다운유치원 주변(수내동)",3,37.367583,127.1243415,2018.4.1,경기도 성남시 분당구 수내3동 81번지 수내초등학교(아름다운유치원) 주변,,,,,,,,,,,
"경기도 성남시 분당구 발이봉북로 47, 맞은편공원쪽  (수내동)",3,37.364091,127.131143,2018.4.1,경기도 성남시 분당구 수내3동 116-9번지 맞은편 공원쪽,,,,,,,,,,,
"경기도 성남시 수정구 수정북로 46-1, (태평동)",2,37.4425387,127.1347297,2018.4.1,경기도 성남시 수정구 태평3동 3642번지,,,,,,,,,,,
"경기도 성남시 수정구 태평로48번길 11, 이화유치원주변  (태평동)",5,37.4482051,127.132408,2018.4.1,경기도 성남시 수정구 태평3동 4825번지 이화유치원 주변,,,,,,,,,,,
"경기도 성남시 수정구 탄리로95번길 7-17, 은서유치원주변  (태평동)",4,37.4436366,127.1349393,2018.4.1,경기도 성남시 수정구 태평3동 3558번지 은서유치원 주변,,,,,,,,,,,
"경기도 성남시 수정구 남문로57번길 3, 2동  (태평동, 대양빌딩)",3,37.4460644,127.1330181,2018.4.1,경기도 성남시 수정구 태평3동 3921번지,,,,,,,,,,,
"경기도 성남시 수정구 남문로 66, (태평동)",3,37.4459195,127.1341888,2018.4.1,경기도 성남시 수정구 태평3동 3798번지(태평오거리),,,,,,,,,,,
"경기도 성남시 수정구 수정로111번길 12, (태평동)",1,37.4421619,127.1323695,2018.4.1,경기도 성남시 수정구 태평3동 3693-28번지,,,,,,,,,,,
"경기도 성남시 수정구 탄리로95번길 16, 수진초등학교  (태평동)",5,37.4443519,127.1331439,2018.4.1,경기도 성남시 수정구 태평3동 3756번지(수진초등학교),,,,,,,,,,,
"경기도 성남시 수정구 수정로217번길 11, 해오름어린이집  (태평동)",1,37.4455444,127.1428932,2018.4.1,경기도 성남시 수정구 태평3동 7329-2번지(해오름어린이집),,,,,,,,,,,
"경기도 성남시 수정구 제일로238번길 24, 맞은편아파트  화단(태평동)",3,37.448081,127.131361,2018.4.1,경기도 성남시 수정구 태평3동 4662번지 맞은편 아파트화단,,,,,,,,,,,
"경기도 성남시 수정구 수정북로 40-1, (태평동)",4,37.442371,127.133991,2018.4.1,경기도 성남시 수정구 태평3동 3638번지,,,,,,,,,,,
"경기도 성남시 수정구 남문로63번길 15-2, (태평동)",5,37.447241,127.133151,2018.4.1,경기도 성남시 수정구 태평3동 4846번지,,,,,,,,,,,
"경기도 성남시 수정구 수정로 88, (수진동)",1,37.4401606,127.1301646,2018.4.1,경기도 성남시 수진2동 2962,,,,,,,,,,,
"경기도 성남시 수정구 성남대로 1227, (수진동)",1,37.4393168,127.1274295,2018.4.1,경기도 성남시 수진2동 4538,,,,,,,,,,,
"경기도 성남시 수정구 제일로 159, (수진동)",1,37.4406042,127.1316816,2018.4.1,경기도 성남시 수진2동 2929,,,,,,,,,,,
"경기도 성남시 수정구 단대로 30, 단대초등학교  정문(단대동)",1,37.453163,127.157483,2018.4.1,경기도 성남시 단대동 80번지 단대초등학교 정문,,,,,,,,단대동,79,,
"경기도 성남시 수정구 모란로 33, (수진동, 흥일빌라)",4,37.4361642,127.1271654,2018.4.1,경기도 성남시 수정구 수진2동 4780-2번지,,,,,,,,,,,
"경기도 성남시 수정구 제일로123번길 9, 수정초등학교  (수진동)",1,37.4366078,127.1319659,2018.4.1,경기도 성남시 수정구 수진2동 4347번지(수정초등학교),,,,,,,,,,,
경기도 성남시 수정구 탄천진입통로,2,37.440021,127.120791,2018.4.1,경기도 성남시 수정구 수진2동 4690-29번지 (탄천진입통로),,,,,,,,,,,
"경기도 성남시 수정구 단대로 30, 단대초등학교  후문(단대동)",2,37.4530176,127.1592237,2018.4.1,경기도 성남시 수정구 단대동 75번지 단대초등학교 후문,,,,,,,,,,,
"경기도 성남시 중원구 시민로104번길 37, 제일초등학교  (중앙동)",1,37.4393802,127.1493631,2018.4.1,경기도 성남시 중원구 중앙동 2985번지 제일초등학교 담장길,,,,,,,,,,,
"경기도 성남시 수정구 남문로39번길 23, (태평동)",5,37.447091,127.130381,2018.4.1,경기도 성남시 수정구 태평3동 4452번지,,,,,,,,,,,
"경기도 성남시 수정구 수정북로21번길 16-1, (태평동, 중앙빌라)",4,37.443181,127.131421,2018.4.1,경기도 성남시 수정구 태평3동 3705-2번지,,,,,,,,,,,
"경기도 성남시 수정구 수정북로 113, 에녹스익스프레스부근  (태평동)",3,37.4450564,127.1414237,2018.4.1,경기도 성남시 수정구 태평4동 7332-2번지 에녹스익스프레스 부근,,,,,,,,,,,
"경기도 성남시 수정구 수정로 233, 성남초등학교  뒷편 담장 부근(태평동)",3,37.4458791,127.1442797,2018.4.1,경기도 성남시 수정구 태평4동 7326번지 성남초등학교 뒷편 담장 부근,,,,,,,,,,,
"경기도 성남시 수정구 남문로133번길 18, 대성공인중개사부근  (태평동)",3,37.4495567,127.1407648,2018.4.1,경기도 성남시 수정구 태평4동 1824번지 대성공인중개사 부근,,,,,,,,,,,
"경기도 성남시 수정구 시민로197번길 16, (태평동, 신한빌라)",3,37.4451063,127.1401811,2018.4.1,경기도 성남시 수정구 태평4동 7314-4번지 부근,,,,,,,,,,,
"경기도 성남시 수정구 달래내로369번길 9, (상적동)",3,37.426241,127.072191,2018.4.1,경기도 성남시 수정구 상적동 248-12번지,,,,,,,,상적동,22,,
,5,37.408964,127.0970626,2018.4.1,경기도 성남시 수정구 금토동 270-18번지 금토동 제1어린이놀이터,,,,,,,,금토동,21,,
,5,37.4112573,127.0864219,2018.4.1,경기도 성남시 수정구 금토동 224-1번지 금토동 제2어린이놀이터,,,,,,,,,,,
,4,37.4208823,127.1040262,2018.4.1,경기도 성남시 수정구 시흥동 83-6번지 시흥동 놀이터소공원,,,,,,,,시흥동,28,,
,3,37.4172943,127.1103863,2018.4.1,경기도 성남시 수정구 사송동 531-1(531(전)번지 앞),,,,,,,,사송동,9,,
,1,37.4153253,127.1132069,2018.4.1,경기도 성남시 수정구 사송동 558-7번지 사송동어린이놀이터,,,,,,,,,,,
,4,37.4172547,127.0810751,2018.4.1,경기도 성남시 수정구 금토동 93-7번지,,,,,,,,,,,
,1,37.406452,127.0843706,2018.4.1,경기도 성남시 수정구 금토동 422-11번지,,,,,,,,,,,
"경기도 성남시 수정구 사송로77번길 52, (사송동)",3,37.410411,127.113901,2018.4.1,경기도 성남시 수정구 사송동 374번지,,,,,,,,,,,
경기도 성남시 수정구 경부고속도로,2,37.4082396,127.0911318,2018.4.1,경기도 성남시 수정구 금토동 410-29번지 경부고속도로 지하교각부근,,,,,,,,,,,
"경기도 성남시 수정구 대왕판교로915번길 32, 맞은편  (시흥동)",3,37.423031,127.099861,2018.4.1,경기도 성남시 수정구 시흥동 211-1번지 맞은편,,,,,,,,,,,
"경기도 성남시 수정구 성남대로1480번길 25, 복정초등학교  부근(복정동)",1,37.4620006,127.1283336,2018.4.1,경기도 성남시 복정동 664-8번지 복정초등학교 부근,,,,,,,,복정동,107,,
"경기도 성남시 수정구 대왕판교로 775, 국지도 23호 (금토동)",1,37.4096779,127.0990635,2018.4.1,경기도 성남시 금토동 273-5 국지도23호금토동삼거리,,,,,,,,,,,
"경기도 성남시 수정구 대왕판교로 949, 국지도 23호 고등동사무소앞(고등동)",1,37.4250086,127.1015451,2018.4.1,경기도 성남시 고등동 429-1 국지도23호고등동사무소앞,,,,,,,,고등동,29,,
"경기도 성남시 중원구 산성대로 80, (성남동)",1,37.4330577,127.1281236,2018.4.1,경기도 성남시 성남동 4132,,,,,,,,,,,
"경기도 성남시 분당구 판교역로50번길 19, 변경전:백현동 607동 1호 번지(백현동)",5,37.3859264,127.1102498,2018.4.1,경기도 성남시 분당구 백현동 566번지 신백현중앞 사거리(변경전 : 백현동 607-1번지),,,,,,,,,,,
"경기도 성남시 중원구 광명로256번길 3-4, (중앙동)",1,37.4424974,127.1554006,2018.4.1,경기도 성남시 중원구 중앙동 2070번지 돌다방 골목길,,,,,,,,,,,
"경기도 성남시 중원구 광명로 246-11, (중앙동)",3,37.4418503,127.1543749,2018.4.1,경기도 성남시 중원구 중앙동 2379번지,,,,,,,,,,,
"경기도 성남시 중원구 광명로256번길 25-1, (중앙동)",1,37.4410361,127.1568545,2018.4.1,경기도 성남시 중원구 중앙동 1797번지,,,,,,,,,,,
"경기도 성남시 중원구 광명로178번길 22-1, (중앙동)",3,37.437601,127.148491,2018.4.1,경기도 성남시 중원구 중앙동 3274번지,,,,,,,,,,,
"경기도 성남시 중원구 광명로 169, (중앙동)",3,37.438931,127.146371,2018.4.1,경기도 성남시 중원구 중앙동 1322번지,,,,,,,,,,,
"경기도 성남시 중원구 금빛로41번길 50, (금광동)",5,37.4443526,127.162497,2018.4.1,경기도 성남시 중원구 금광1동 1339번지,,,,,,,,,,,
"경기도 성남시 중원구 황송로13번길 9, 부근(금광동, 금광하이츠)",1,37.4465911,127.1689808,2018.4.1,경기도 성남시 중원구 금광1동 2381번지 하원초등학교 부근,,,,,,,,,,,
"경기도 성남시 중원구 박석로85번길 27, (상대원동)",5,37.4385193,127.1628501,2018.4.1,경기도 성남시 중원구 상대원3동 2661번지,,,,,,,,,,,
"경기도 성남시 수정구 성남대로1180번길 19, 풍생중학교  (수진동)",3,37.4356535,127.1308419,2018.4.1,경기도 성남시 수정구 수진2동 4247번지 풍생중학교담장길,,,,,,,,,,,
"경기도 성남시 분당구 수내로46번길 26, 편의점앞  (수내동)",4,37.3795201,127.115357,2018.4.1,경기도 성남시 분당구 수내1동 8-8번지 편의점 앞,,,,,,,,,,,
"경기도 성남시 수정구 신촌로5번길 2, 부근  (신촌동)",5,37.459772,127.1066961,2018.4.1,경기도 성남시 수정구 신촌동 114-23번지 부근,,,,,,,,신촌동,23,,
"경기도 성남시 분당구 발이봉북로 29, (수내동)",5,37.3650167,127.1295666,2018.4.1,경기도 성남시 분당구 수내3동 114-18번지 수내고길,,,,,,,,,,,
"경기도 성남시 수정구 엄뫼골로21번길 4, 군부대벽면부근  (심곡동)",1,37.4440748,127.1010234,2018.4.1,경기도 성남시 수정구 심곡동 434 군부대벽면 부근,,,,,,,,심곡동,9,,
"경기도 성남시 수정구 신촌로 18, (신촌동)",4,37.459701,127.105301,2018.4.1,경기도 성남시 수정구 신촌동 199-8번지,,,,,,,,,,,
"경기도 성남시 수정구 설개로 2, (시흥동)",3,37.422061,127.105241,2018.4.1,경기도 성남시 수정구 시흥동 84-8번지,,,,,,,,,,,
"경기도 성남시 수정구 달래내로207번길 54, (금토동)",3,37.419491,127.078071,2018.4.1,경기도 성남시 수정구 금토동 65-1번지,,,,,,,,,,,
"경기도 성남시 중원구 성남대로1147번길 3, (성남동)",1,37.4319915,127.1285073,2018.4.1,경기도 성남시 중원구 성남동 4163번지,,,,,,,,,,,
"경기도 성남시 중원구 광명로134번길 15-3, 중앙초등학교  (성남동)",1,37.4362837,127.1440951,2018.4.1,경기도 성남시 중원구 성남동 2670번지 중앙초등학교 뒤길,,,,,,,,,,,
"경기도 성남시 중원구 광명로148번길 8-1, (성남동)",1,37.437356,127.1447027,2018.4.1,경기도 성남시 중원구 성남동 2743번지,,,,,,,,,,,
"경기도 성남시 중원구 성남대로1151번길 19, (성남동)",1,37.4322027,127.1268092,2018.4.1,경기도 성남시 중원구 성남동 4309번지,,,,,,,,,,,
"경기도 성남시 중원구 원터로93번길 10, 나들이어린이놀이터  (성남동)",1,37.4349769,127.1420629,2018.4.1,경기도 성남시 중원구 성남동 2566번지 나들이어린이놀이터,,,,,,,,,,,
"경기도 성남시 중원구 둔촌대로101번길 28-16, (성남동)",1,37.4320336,127.1307562,2018.4.1,경기도 성남시 중원구 성남동 3469번지,,,,,,,,,,,
,3,37.4312683,127.1274024,2018.4.1,경기도 성남시 중원구 성남동 4253번지 한진아파트 부근,,,,,,,,,,,
"경기도 성남시 중원구 사기막골로31번길 46, 중원초등학교  주변(상대원동)",3,37.4382491,127.1675464,2018.4.1,경기도 성남시 중원구 상대원1동 153번지 중원초등학교 주변,,,,,,,,,,,
"경기도 성남시 중원구 둔촌대로425번길 33, 미용실앞  (상대원동)",3,37.4360514,127.1643738,2018.4.1,경기도 성남시 중원구 상대원1동 1496번지(미용실 앞),,,,,,,,,,,
"경기도 성남시 중원구 박석로42번길 13, 맞은편공원쪽  (상대원동)",3,37.4370961,127.1672338,2018.4.1,경기도 성남시 중원구 상대원1동 983번지 맞은편(공원쪽),,,,,,,,,,,
,1,37.4458369,127.1827496,2018.4.1,경기도 성남시 중원구 상대원1동 28번지 사기막골공원 입구주차장,,,,,,,,,,,
,1,37.4458369,127.1827496,2018.4.1,경기도 성남시 중원구 상대원1동 28번지 사기막골공원 놀이터,,,,,,,,,,,
,2,37.4458369,127.1827496,2018.4.1,경기도 성남시 중원구 상대원1동 28번지 사기막골공원 체험관(검지는 건물내부에 설치),,,,,,,,,,,
,1,37.4458369,127.1827496,2018.4.1,경기도 성남시 중원구 상대원1동 28번지 사기막골공원 물놀이장,,,,,,,,,,,
,1,37.433277,127.164372,2018.4.1,경기도 성남시 중원구 상대원1동 115-11번지(다솜어린이집),,,,,,,,,,,
"경기도 성남시 분당구 판교역로44번길 5-6, 변경전:백현동 609동 11호 사거리 번지(백현동)",1,37.3847873,127.1095284,2018.4.1,경기도 성남시 분당구 백현동 569-4번지 보행자도로 사거리(변경전 : 백현동 609-11번지),,,,,,,,,,,
경기도 성남시 분당구 재너머삼거리,2,37.3801584,127.091844,2018.4.1,경기도 성남시 분당구 백현동 646-2번지 재너머삼거리 율곡초교 남측,,,,,,,,,,,
"경기도 성남시 수정구 희망로534번길 3, 성남북초등학교  산성어린이집(산성동)",1,37.4528851,127.1504559,2018.4.1,"경기도 성남시 수정구 산성동 2117번지 성남북초등학교, 산성어린이집",,,,,,,,산성동,65,,
"경기도 성남시 중원구 자혜로57번길 17, (은행동, 소망빌라)",5,37.4517934,127.1672736,2018.4.1,경기도 성남시 중원구 은행1동 2290-1 세계유통 부근,,,,,,,,,,,
,1,37.4307238,127.0727459,2018.4.1,경기도 성남시 수정구 상적동 173-9번지,,,,,,,,,,,
,4,37.428931,127.103221,2018.4.1,경기도 성남시 수정구 고등동 400-12번지,,,,,,,,,,,
"경기도 성남시 중원구 은이로27번길 9, 빛여울어린이놀이터  (은행동)",4,37.4573143,127.1676241,2018.4.1,경기도 성남시 중원구 은행2동 1034번지 빛여울어린이놀이터,,,,,,,,,,,
"경기도 성남시 중원구 자혜로17번길 16, (은행동, 현대)",4,37.451945,127.1635692,2018.4.1,경기도 성남시 중원구 은행2동 1932-6번지 선경유치원 주변,,,,,,,,,,,
"경기도 성남시 중원구 자혜로57번길 13-11, (은행동, 동원빌라)",3,37.4520612,127.1666732,2018.4.1,경기도 성남시 중원구 은행1동 2307-1번지,,,,,,,,,,,
,3,37.452711,127.169671,2018.4.1,경기도 성남시 중원구 은행1동 1973-1번지,,,,,,,,,,,
"경기도 성남시 중원구 자혜로67번길 4, (은행동, 대웅빌라)",5,37.451311,127.166841,2018.4.1,경기도 성남시 중원구 은행1동 2410번지,,,,,,,,,,,
"경기도 성남시 중원구 순환로447번길 11, 은행초등학교  후문(은행동)",3,37.4609417,127.1702419,2018.4.1,경기도 성남시 중원구 은행2동 652 은행초등학교 후문,,,,,,,,,,,
경기도 성남시 분당구 분당로 196,3,37.3736487,127.131344,2018.4.1,경기도 성남시 분당구 분당동 36번지 당촌초등학교 주변,,,,,,,,,,,
경기도 성남시 분당구 서현로421번길 6,3,37.3748675,127.1438102,2018.4.1,경기도 성남시 분당구 분당동 100-5번지,,,,,,,,,,,
"경기도 성남시 수정구 수정로171번길 10, 구시청  후문 부근(태평동)",3,37.4447735,127.1392143,2018.4.1,경기도 성남시 수정구 태평2동 3309번지 구시청 후문 부근,,,,,,,,,,,
,3,37.4486759,127.1348849,2018.4.1,경기도 성남시 수정구 태평2동 874번지 앞,,,,,,,,,,,
"경기도 성남시 수정구 태평로82번길 8-1, (태평동)",1,37.4494733,127.1358042,2018.4.1,경기도 성남시 수정구 태평2동 483번지,,,,,,,,,,,
"경기도 성남시 수정구 태평로78번길 8, (태평동, 영현맨션빌라)",6,37.449201,127.135061,2018.4.1,경기도 성남시 수정구 태평2동 513번지 육거리,,,,,,,,,,,
"경기도 성남시 중원구 박석로62번길 19, (상대원동)",4,37.439111,127.167981,2018.4.1,경기도 성남시 중원구 상대원1동 895번지,,,,,,,,,,,
"경기도 성남시 중원구 둔촌대로413번길 5, (상대원동)",4,37.433591,127.162721,2018.4.1,경기도 성남시 중원구 상대원1동 1715번지,,,,,,,,,,,
"경기도 성남시 중원구 금상로 132, (상대원동)",3,37.441831,127.169681,2018.4.1,경기도 성남시 중원구 상대원1동 279-7번지,,,,,,,,,,,
"경기도 성남시 중원구 보통골로 14, (상대원동)",4,37.434791,127.180371,2018.4.1,경기도 성남시 중원구 상대원1동 378-11번지,,,,,,,,,,,
"경기도 성남시 중원구 사기막골로9번길 32, (상대원동)",4,37.436171,127.166841,2018.4.1,경기도 성남시 중원구 상대원1동 151-3번지,,,,,,,,,,,
"경기도 성남시 중원구 박석로15번길 45, (상대원동)",5,37.434241,127.160891,2018.4.1,경기도 성남시 중원구 상대원1동 1940-11번지,,,,,,,,,,,
"경기도 성남시 중원구 희망로343번길 24, 대원초등학교 4251호 부근 로표기(상대원동)",3,37.436497,127.1543246,2018.4.1,경기도 성남시 중원구 상대원2동 4263 대원초등학교 부근(4251로표기),,,,,,,,,,,
,3,37.4391809,127.1549991,2018.4.1,경기도 성남시 중원구 상대원2동 3385 대원경로당 부근,,,,,,,,,,,
,3,37.4354012,127.154486,2018.4.1,경기도 성남시 중원구 상대원2동 5004-1 게이트볼장입구,,,,,,,,,,,
"경기도 성남시 중원구 희망로367번길 7-1, 뽀빠이책방부근  (상대원동)",4,37.4385333,127.157484,2018.4.1,경기도 성남시 중원구 상대원2동 3424 뽀빠이책방 부근,,,,,,,,,,,
"경기도 성남시 중원구 희망로380번길 12-9, (상대원동, 현대그린빌)",3,37.4385276,127.1597964,2018.4.1,경기도 성남시 중원구 상대원2동 2997-7 성신슈퍼 부근,,,,,,,,,,,
"경기도 성남시 분당구 수내로192번길 25, (수내동, 푸른마을쌍용아파트)",1,37.3691144,127.1243198,2018.4.1,경기도 성남시 분당구 수내3동 75번지,,,,,,,,,,,
"경기도 성남시 분당구 발이봉북로35번길 16, (수내동)",3,37.3766914,127.1246814,2018.4.1,경기도 성남시 분당구 수내3동 118-11번지,,,,,,,,,,,
,4,37.368901,127.125091,2018.4.1,경기도 성남시 분당구 수내3동 127번지 푸른어린이공원 입구(벽산 203동 앞),,,,,,,,,,,
경기도 성남시 분당구 신해철거리,4,37.365721,127.126971,2018.4.1,경기도 성남시 분당구 수내3동 125-3 신해철거리,,,,,,,,,,,
"경기도 성남시 분당구 내정로119번길 2, 성남생명숲어린이집  (정자동)",1,37.371051,127.1152621,2018.4.1,경기도 성남시 분당구 정자동 52번지(성남생명숲어린이집),,,,,,,,,,,
"경기도 성남시 중원구 희망로343번길 24, 대원초등학교 4236호 부근 앞(상대원동)",1,37.4369208,127.1550736,2018.4.1,경기도 성남시 중원구 상대원2동 4251 대원초등학교 부근(4236앞),,,,,,,,,,,
"경기도 성남시 수정구 수정로 168, (신흥동)",1,37.4426935,127.1386551,2018.4.1,경기도 성남시 신흥1동 5528,,,,,,,,신흥동,151,,
"경기도 성남시 수정구 희망로 527, (신흥동)",1,37.4503369,127.1517016,2018.4.1,경기도 성남시 신흥2동 139-3,,,,,,,,,,,
"경기도 성남시 수정구 수정로 75, (태평동)",1,37.4401697,127.1287169,2018.4.1,경기도 성남시 태평1동 6459,,,,,,,,,,,
"경기도 성남시 수정구 수정로119번길 4, (태평동)",1,37.4416426,127.1335704,2018.4.1,경기도 성남시 태평3동 3677,,,,,,,,,,,
"경기도 성남시 수정구 남문로32번길 7, 태평초등학교  정문(태평동)",1,37.4445802,127.1313747,2018.4.1,경기도 성남시 태평3동 3743번지 태평초등학교 정문,,,,,,,,,,,
"경기도 성남시 분당구 판교역로50번길 34, 건너편인도변경전 607동 1호 : 백현동 번지(백현동)",1,37.3851187,127.1123095,2018.4.1,경기도 성남시 분당구 백현동 579-2번지 건너편 인도(변경전 : 백현동 607-1번지),,,,,,,,,,,
경기도 성남시 분당구 보행자도로,1,37.4007377,127.0983704,2018.4.1,경기도 성남시 분당구 판교동 509-10번지 E12-1블럭 보행자 도로 (체육공원 방향),,,,,,,,,,,
,1,37.3950009,127.0992552,2018.4.1,경기도 성남시 분당구 판교동 547번지 미르어린이공원 내부,,,,,,,,,,,
,1,37.3942981,127.0999886,2018.4.1,경기도 성남시 분당구 판교동 548-7번지 낙생초등학교 후문 앞,,,,,,,,,,,
"경기도 성남시 수정구 시민로215번길 23, (태평동)",5,37.446261,127.138421,2018.4.1,경기도 성남시 수정구 태평2동 3307-51번지,,,,,,,,,,,
,4,37.456831,127.163891,2018.4.1,경기도 성남시 중원구 은행2동 1575번지,,,,,,,,,,,
"경기도 성남시 중원구 산성대로552번길 15, 입구쪽(은행동, 은행주공2차아파트)",4,37.457741,127.171511,2018.4.1,경기도 성남시 중원구 은행2동 550-6번지(주공아파트 입구쪽),,,,,,,,,,,
,3,37.4480424,127.132204,2018.4.1,경기도 성남시 수정구 태평3동 4761번지 꽃가람 어린이놀이터(이화유치원 앞),,,,,,,,,,,
"경기도 성남시 수정구 남문로32번길 7, 태평초등학교  후문(태평동)",3,37.4446438,127.1313646,2018.4.1,경기도 성남시 수정구 태평3동 3743번지 태평초등학교 후문,,,,,,,,,,,
경기도 성남시 분당구 수내로 201,1,37.3707694,127.1292462,2018.4.1,경기도 성남시 분당구 분당동 39번지(샛별유치원),,,,,,,,,,,
경기도 성남시 분당구 장안로26번길 12,1,37.368584,127.1432364,2018.4.1,경기도 성남시 분당구 분당동 156번지(분당어린이집),,,,,,,,,,,
경기도 성남시 분당구 분당로327번길 12,3,37.367101,127.143041,2018.4.1,경기도 성남시 분당구 분당동 153-15번지,,,,,,,,,,,
"경기도 성남시 분당구 미금일로 58, 꿈터유치원  (구미동)",1,37.3442992,127.1000628,2018.4.1,경기도 성남시 분당구 구미1동 63번지(꿈터유치원),,,,,,,,,,,
,2,37.3467294,127.1092283,2018.4.1,경기도 성남시 분당구 구미1동 21-3 미금지하보도(금성 백조빌라 206동앞),,,,,,,,,,,
"경기도 성남시 분당구 미금일로90번길 23, 가구전시장  (구미동)",2,37.348099,127.1095582,2018.4.1,경기도 성남시 분당구 구미1동 22번지 가구전시장 앞 사거리,,,,,,,,,,,
,4,37.346161,127.110931,2018.4.1,경기도 성남시 분당구 구미1동 59-5번지,,,,,,,,,,,
,4,37.349491,127.105741,2018.4.1,경기도 성남시 분당구 구미1동 19번지(머내공원 배드민턴장),,,,,,,,,,,
,1,37.3662785,127.1117901,2018.4.1,경기도 성남시 분당구 정자동 91-1번지 느티마을어린이공원(분당50호),,,,,,,,,,,
"경기도 성남시 분당구 황새울로116번길 19-8, 백현어린이공원분당 51호 (정자동)",1,37.3711901,127.1123521,2018.4.1,경기도 성남시 분당구 정자동 72번지 백현어린이공원(분당51호),,,,,,,,,,,
"경기도 성남시 분당구 백현로144번길 26, 백현초등학교  · 백현중학교(정자동)",1,37.3720645,127.1113789,2018.4.1,경기도 성남시 분당구 정자동 76번지 백현초등학교· 백현중학교 사이길,,,,,,,,,,,
,4,37.3688416,127.1092528,2018.4.1,경기도 성남시 분당구 정자동 100-3번지 주변 상록지하보도,,,,,,,,,,,
"경기도 성남시 분당구 내정로113번길 12, (정자동)",2,37.3708031,127.1137777,2018.4.1,경기도 성남시 분당구 정자동 56-7번지,,,,,,,,,,,
"경기도 성남시 분당구 금곡로 298, 금곡공원  (정자동)",4,37.3570241,127.1100689,2018.4.1,경기도 성남시 분당구 정자동 183-1번지 금곡공원,,,,,,,,,,,
,3,37.361542,127.1130157,2018.4.1,경기도 성남시 분당구 정자동 136번지 앞,,,,,,,,,,,
"경기도 성남시 분당구 느티로 70, 401동  입구(정자동, 느티마을주공공무원4단지)",1,37.367361,127.1135594,2018.4.1,경기도 성남시 분당구 정자동 90 느티마을 401동 입구,,,,,,,,,,,
"경기도 성남시 분당구 느티로 70, 안촌유치원  (정자동)",1,37.3687945,127.1122156,2018.4.1,경기도 성남시 분당구 정자동 65-3번지(안촌유치원),,,,,,,,,,,
"경기도 성남시 분당구 황새울로132번길 16-7, (정자동)",4,37.372221,127.111891,2018.4.1,경기도 성남시 분당구 정자동 36-9번지,,,,,,,,,,,
"경기도 성남시 분당구 백현로144번길 26, 백현초등학교  (정자동)",1,37.3766914,127.1246814,2018.4.1,경기도 성남시 분당구 정자동 76번지 백현초등학교,,,,,,,,,,,
"경기도 성남시 분당구 내정로107번길 2, (정자동)",4,37.3766914,127.1246814,2018.4.1,경기도 성남시 분당구 정자동 60번지,,,,,,,,,,,
"경기도 성남시 수정구 남문로136번길 15, 놀이터 부근(태평동, 선경태평아파트)",5,37.4469326,127.142318,2018.4.1,경기도 성남시 수정구 태평4동 7307번지 선경아파트 놀이터 부근,,,,,,,,,,,
"경기도 성남시 분당구 내정로7번길 18, 봉우재어린이공원분당 52호 (정자동)",1,37.3611857,127.1125177,2018.4.1,경기도 성남시 분당구 정자동 145번지 봉우재어린이공원(분당52호),,,,,,,,,,,
"경기도 성남시 수정구 태평로 126-1, 현충탑부근  (태평동)",2,37.4514426,127.1404154,2018.4.1,경기도 성남시 수정구 태평4동 45번지 현충탑 부근,,,,,,,,,,,
,3,37.4511221,127.1366739,2018.4.1,경기도 성남시 수정구 태평4동 산52-1번지 영장공원 물놀이장,,,,,,,,,,,
경기도 성남시 분당구 내운중로,1,37.3886981,127.0996305,2018.4.1,경기도 성남시 분당구 판교동 579-6번지 E10-1블럭 내 운중로 앞 보행자 출입로변,,,,,,,,,,,
"경기도 성남시 분당구 판교원로 209, (판교동, 판교원마을진원제비앙아파트)",1,37.3863057,127.0919811,2018.4.1,경기도 성남시 분당구 판교동 638-2번지 원마을 6단지 뒷편 소도로변 삼거리,,,,,,,,,,,
"경기도 성남시 분당구 서판교로 193, 판교   방향(판교동, 판교원마을13단지)",1,37.4018562,127.0932185,2018.4.1,경기도 성남시 분당구 판교동 492-2번지 판교 원마을 13단지 앞 경부고속도로 방향,,,,,,,,,,,
"경기도 성남시 분당구 서판교로 165, 판교   입구(판교동, 판교원마을휴먼시아아파트)",1,37.4022329,127.0949281,2018.4.1,경기도 성남시 분당구 판교동 500번지 판교 원마을 12단지 뒤편 근린공원(산책로) 입구,,,,,,,,,,,
"경기도 성남시 분당구 서판교로180번길 18-2, 판교공원내체육시설입구  (판교동)",1,37.4022329,127.0949281,2018.4.1,경기도 성남시 분당구 판교동 500번지 판교공원 내 체육시설 입구,,,,,,,,,,,
"경기도 성남시 분당구 서판교로180번길 18-2, 판교도서관뒤휴계시설내  (판교동)",1,37.4022329,127.0949281,2018.4.1,경기도 성남시 분당구 판교동 500번지 판교 도서관 뒤 휴계시설 내,,,,,,,,,,,
"경기도 성남시 분당구 서판교로180번길 18-2, 판교  입구(판교동)",1,37.4022329,127.0949281,2018.4.1,경기도 성남시 분당구 판교동 500번지 판교 홍보관 뒤 산책로 입구,,,,,,,,,,,
"경기도 성남시 분당구 판교원로 209, 입구(판교동, 판교원마을진원제비앙아파트)",1,37.3887861,127.090741,2018.4.1,경기도 성남시 분당구 판교동 628-1번지 원마을 6단지 운중천 산책로 입구,,,,,,,,,,,
경기도 성남시 분당구 삼거리,1,37.3888509,127.0932663,2018.4.1,경기도 성남시 분당구 판교동 584-1번지 피크닉공원 입구 삼거리(대로변),,,,,,,,,,,
,1,37.3927409,127.1003456,2018.4.1,경기도 성남시 분당구 판교동 559-7번지 E11-1블럭 내 서판교 차량 출입구 앞 (지하차도 진입구),,,,,,,,,,,
"경기도 성남시 분당구 판교로 50, 108동  옆 판교공원 입구(판교동, 판교원마을주공휴먼시아1단지)",4,37.3917092,127.0893925,2018.4.1,경기도 성남시 분당구 판교동 614-13번지 판교원마을 1단지(108동) 옆 판교공원 입구,,,,,,,,,,,
,1,37.3910591,127.0925365,2018.4.1,경기도 성남시 분당구 판교동 611-5번지 F7-1블럭 주택지역 외곽도로변 판교 홍보관 옆(산책로 입구),,,,,,,,,,,
"경기도 성남시 수정구 희망로518번길 8, 성남혜은학교  정문(단대동)",4,37.4500766,127.1539852,2018.4.1,경기도 성남시 수정구 단대동 192번지 성남혜은학교 정문,,,,,,,,,,,
"경기도 성남시 분당구 중앙공원로31번길 32, 서현어린이집  (서현동)",4,37.3824028,127.1260124,2018.4.1,경기도 성남시 분당구 서현1동 89-4번지(서현어린이집),,,,,,,,,,,
"경기도 성남시 분당구 새마을로165번길 29, (율동)",3,37.3766914,127.1246814,2018.4.1,경기도 성남시 분당구 율동 270-2,,,,,,,,,,,
"경기도 성남시 분당구 중앙공원로 77, 서현도서관  (서현동)",4,37.383891,127.131891,2018.4.1,경기도 성남시 분당구 서현1동 234(서현도서관),,,,,,,,,,,
,2,37.3769901,127.1392265,2018.4.1,경기도 성남시 분당구 서현2동 343-5번지 부근,,,,,,,,,,,
"경기도 성남시 수정구 시민로205번길 1, 맞은편  (태평동)",4,37.4460852,127.1414263,2018.4.1,경기도 성남시 수정구 태평4동 7317-17 맞은편,,,,,,,,,,,
"경기도 성남시 수정구 시민로249번길 1, (태평동)",2,37.4498216,127.1397076,2018.4.1,경기도 성남시 수정구 태평4동 1680번지,,,,,,,,,,,
"경기도 성남시 수정구 수정북로 101, 다래유치원사랑하는유치원주변  (태평동)",5,37.4444748,127.1404573,2018.4.1,경기도 성남시 수정구 태평4동 7335-8번지 다래유치원(사랑하는 유치원) 주변,,,,,,,,,,,
"경기도 성남시 수정구 태평로124번길 8, 양지유치원주변  (태평동)",4,37.4508189,127.1401215,2018.4.1,경기도 성남시 수정구 태평4동 106번지 양지유치원 주변,,,,,,,,,,,
"경기도 성남시 수정구 남문로131번길 23, (태평동)",3,37.4500626,127.1401331,2018.4.1,경기도 성남시 수정구 태평4동 1759번지 사거리,,,,,,,,,,,
"경기도 성남시 수정구 수정로 233, 성남초등학교  (태평동)",1,37.447942,127.141431,2018.4.1,경기도 성남시 수정구 태평4동 7362번지(성남초등학교),,,,,,,,,,,
"경기도 성남시 수정구 공원로 427, (태평동, 성경빌라)",3,37.4482399,127.1430477,2018.4.1,경기도 성남시 수정구 태평4동 7298-8번지(아이리라어린이집),,,,,,,,,,,
,2,37.4461176,127.1423667,2018.4.1,경기도 성남시 수정구 태평4동 7319-16번지 금빛 어린이놀이터,,,,,,,,,,,
"경기도 성남시 수정구 시민로 234, (태평동)",5,37.448631,127.140321,2018.4.1,경기도 성남시 수정구 태평4동 2338번지,,,,,,,,,,,
경기도 성남시 분당구 뒷편삼거리,1,37.3917093,127.0997603,2018.4.1,경기도 성남시 분당구 판교동 560-9번지 판교동주민센터 뒷편 삼거리(해나유치원),,,,,,,,,,,
경기도 성남시 분당구 진출입로,1,37.3931025,127.0995171,2018.4.1,경기도 성남시 분당구 판교동 557-8번지 E11-1블럭 서판교 진출입로 입구 (보행자 출입로 사거리),,,,,,,,,,,
"경기도 성남시 분당구 서판교로74번길 11, 낙생초등학교  (판교동)",1,37.3940781,127.0990564,2018.4.1,경기도 성남시 분당구 판교동 551번지(낙생초등학교),,,,,,,,,,,
,1,37.3869707,127.0917287,2018.4.1,경기도 성남시 분당구 판교동 438번지(판교초등학교),,,,,,,,,,,
,4,37.402572,127.094847,2018.4.1,경기도 성남시 분당구 판교동 487 바람개비어린이공원,,,,,,,,,,,
"경기도 성남시 분당구 운중로257번길 7-9, (판교동)",4,37.390141,127.090811,2018.4.1,경기도 성남시 분당구 판교동 596번지,,,,,,,,,,,
,3,37.4006228,127.1166565,2018.4.1,경기도 성남시 분당구 삼평동 727-1번지 이황초등학교 / 삼평중학교 사이 대로변,,,,,,,,삼평동,106,,
,3,37.389481,127.101691,2018.4.1,경기도 성남시 분당구 판교동 583-2번지,,,,,,,,,,,
,1,37.4043991,127.1080157,2018.4.1,경기도 성남시 분당구 삼평동 699번지 달팽이어린이공원 내부,,,,,,,,,,,
,1,37.401691,127.1113797,2018.4.1,경기도 성남시 분당구 삼평동 677번지 어울어린이공원 내부,,,,,,,,,,,
,1,37.4058385,127.1072935,2018.4.1,경기도 성남시 분당구 삼평동 697번지 삼성테크윈 뒷편 봇들공원 내부,,,,,,,,,,,
,1,37.3970251,127.1103296,2018.4.1,경기도 성남시 분당구 삼평동 646-1번지 키움건설 앞 인도변,,,,,,,,,,,
"경기도 성남시 분당구 돌마로476번길 30, 서당초등학교 34호 서당어린이공원 분당 주변(서현동)",3,37.3752216,127.1345082,2018.4.1,경기도 성남시 분당구 서현2동 302번지 서당어린이공원(분당34호) 서당초등학교 주변,,,,,,,,,,,
"경기도 성남시 분당구 돌마로476번길 30, 서당초등학교  주변(서현동)",3,37.3745797,127.1347477,2018.4.1,경기도 성남시 분당구 서현2동 303번지 서당초등학교 주변,,,,,,,,,,,
,4,37.3760667,127.1350486,2018.4.1,경기도 성남시 분당구 서현동 294 효자어린이공원,,,,,,,,,,,
"경기도 성남시 중원구 금상로 97, 금상초등학교  부근(금광동)",1,37.4437789,127.1651805,2018.4.1,경기도 성남시 중원구 금광1동 1632번지 금상초등학교 부근,,,,,,,,,,,
"경기도 성남시 분당구 이매로89번길 37, (이매동, 골든빌)",3,37.3946109,127.1333877,2018.4.1,경기도 성남시 분당구 이매1동 275번지 부근,,,,,,,,,,,
"경기도 성남시 분당구 성남대로772번길 9, 부근  (이매동)",3,37.3984117,127.1300012,2018.4.1,경기도 성남시 분당구 이매1동 86-6번지 부근,,,,,,,,,,,
,2,37.4023984,127.125995,2018.4.1,경기도 성남시 분당구 이매1동 103번지 과수원어린이공원(분당20호),,,,,,,,,,,
"경기도 성남시 분당구 불정로 362, 세화유치원주변  (서현동)",5,37.3725245,127.1361524,2018.4.1,경기도 성남시 분당구 서현2동 308번지 세화유치원 주변,,,,,,,,,,,
,4,37.3899039,127.1256345,2018.4.1,경기도 성남시 분당구 이매1동 125번지 누엣길어린이공원,,,,,,,,,,,
"경기도 성남시 분당구 방아로46번길 37, (이매동)",1,37.3956875,127.134378,2018.4.1,경기도 성남시 분당구 이매1동 59-6번지,,,,,,,,,,,
"경기도 성남시 분당구 양현로94번길 29, 608동 지하층  이매보도  맞은편(이매동, 이매촌청구6단지)",2,37.3995681,127.1271242,2018.4.1,경기도 성남시 분당구 이매1동 128-18번지 이매지하보도(청구아파트 608동 맞은편),,,,,,,,,,,
경기도 성남시 분당구 삼거리,4,37.397531,127.128811,2018.4.1,경기도 성남시 분당구 이매1동 128-10(자원봉사센터 삼거리),,,,,,,,,,,
"경기도 성남시 중원구 마지로 119, 앞도매시장  내(하대원동)",3,37.4275123,127.1426945,2018.4.1,경기도 성남시 중원구 하대원동 148-17번지 앞 (도매시장내),,,,,,,,,,,
,1,37.447651,127.141261,2018.4.1,경기도 성남시 수정구 태평4동 7292번지(성남어린이집),,,,,,,,,,,
"경기도 성남시 수정구 시민로249번길 7-1, (태평동)",5,37.449601,127.138941,2018.4.1,경기도 성남시 수정구 태평4동 1564번지,,,,,,,,,,,
"경기도 성남시 수정구 남문로140번길 19, (태평동, 선경태평아파트)",5,37.446751,127.142591,2018.4.1,경기도 성남시 수정구 태평4동 7306번지,,,,,,,,,,,
"경기도 성남시 수정구 남문로131번길 10, (태평동)",5,37.448911,127.140721,2018.4.1,경기도 성남시 수정구 태평4동 2281번지,,,,,,,,,,,
"경기도 성남시 수정구 태평로128번길 9, (태평동)",5,37.450811,127.140771,2018.4.1,경기도 성남시 수정구 태평4동 1916번지,,,,,,,,,,,
"경기도 성남시 수정구 시민로205번길 12-2, (태평동)",5,37.445881,127.140381,2018.4.1,경기도 성남시 수정구 태평4동 7311-9번지,,,,,,,,,,,
,5,37.4374918,127.1386306,2018.4.1,경기도 성남시 수정구 수진1동 2317번지 노상주차장 부근,,,,,,,,,,,
,2,37.4360267,127.1368048,2018.4.1,경기도 성남시 수정구 수진1동 2664번지 해오름 어린이놀이터,,,,,,,,,,,
"경기도 성남시 중원구 둔촌대로151번길 22, (성남동, 신흥다세대)",4,37.429732,127.1334695,2018.4.1,경기도 성남시 중원구 성남동 3998번지,,,,,,,,,,,
"경기도 성남시 중원구 원터로93번길 3, 예원유치원주변  (성남동)",5,37.4350202,127.1431103,2018.4.1,경기도 성남시 중원구 성남동 2894번지 예원유치원 주변,,,,,,,,,,,
"경기도 성남시 중원구 제일로35번길 10-1, (성남동)",3,37.4306183,127.1357452,2018.4.1,경기도 성남시 중원구 성남동 3775번지,,,,,,,,,,,
"경기도 성남시 중원구 제일로35번길 43-2, (성남동)",3,37.4318805,127.132121,2018.4.1,경기도 성남시 중원구 성남동 3552번지,,,,,,,,,,,
"경기도 성남시 중원구 둔촌대로69번길 5, (성남동)",3,37.4305252,127.1267373,2018.4.1,경기도 성남시 중원구 성남동 4449번지,,,,,,,,,,,
"경기도 성남시 중원구 성남대로 1128, 주차장입구  (성남동)",5,37.4305372,127.129874,2018.4.1,경기도 성남시 중원구 성남동 4122번지 주차장 입구,,,,,,,,,,,
"경기도 성남시 중원구 산성대로 228, (성남동)",1,37.438459,127.1432294,2018.4.1,경기도 성남시 중원구 성남동 2066번지,,,,,,,,,,,
"경기도 성남시 중원구 원터로94번길 7, 중앙초등학교  (성남동)",4,37.4359595,127.1432974,2018.4.1,경기도 성남시 중원구 성남동 2580번지(중앙초등학교),,,,,,,,,,,
,2,37.433325,127.129173,2018.4.1,경기도 성남시 중원구 성남동 1505번지 모란역 1번출구 자전거횡단보도,,,,,,,,,,,
,1,37.4084987,127.1169442,2018.4.1,경기도 성남시 분당구 삼평동 717-2번지 송현공원 내부 게이트볼장 앞,,,,,,,,,,,
,1,37.4058475,127.1161658,2018.4.1,경기도 성남시 분당구 삼평동 710-3번지 송현초등학교 후문 입구,,,,,,,,,,,
"경기도 성남시 분당구 동판교로 225, 주출입구 앞(삼평동, 봇들마을3단지주공뜨란채아파트)",1,37.4035678,127.1158894,2018.4.1,경기도 성남시 분당구 삼평동 721-1번지 봇들마을 3단지 주출입구 앞,,,,,,,,,,,
,3,37.3922686,127.1250614,2018.4.1,경기도 성남시 분당구 이매2동 119번지 구렛들어린이공원(분당25호),,,,,,,,,,,
"경기도 성남시 분당구 양현로 400, 야탑초등학교  입구(야탑동)",3,37.4157618,127.1266073,2018.4.1,경기도 성남시 분당구 야탑1동 394-4번지 야탑초등학교 입구,,,,,,,,,,,
"경기도 성남시 분당구 매화로55번길 6-4, 부근  (야탑동)",3,37.4127311,127.1335223,2018.4.1,경기도 성남시 분당구 야탑1동 381-14번지 부근,,,,,,,,,,,
,4,37.4147892,127.1307366,2018.4.1,경기도 성남시 분당구 야탑1동 337번지 하늘어린이공원,,,,,,,,,,,
"경기도 성남시 분당구 양현로 400, 야탑초등학교  (야탑동)",5,37.4162652,127.1259045,2018.4.1,경기도 성남시 분당구 야탑1동 333번지(야탑초등학교),,,,,,,,,,,
,4,37.414331,127.125471,2018.4.1,경기도 성남시 분당구 야탑1동 332(꿈동산어린이공원),,,,,,,,,,,
"경기도 성남시 분당구 장미로 102, (야탑동)",4,37.413571,127.132051,2018.4.1,경기도 성남시 분당구 야탑1동 378-1번지,,,,,,,,,,,
"경기도 성남시 분당구 안골로 12-4, (서현동)",3,37.3842804,127.1334912,2018.4.1,경기도 성남시 분당구 서현1동 198-1번지,,,,,,,,,,,
,4,37.4094905,127.131019,2018.4.1,경기도 성남시 분당구 야탑2동 516번지 장승백이어린이공원(분당14호),,,,,,,,,,,
경기도 성남시 분당구 양현로 262,3,37.4071577,127.1261632,2018.4.1,경기도 성남시 분당구 야탑2동 531번지 하탑초등학교 주변,,,,,,,,,,,
"경기도 성남시 분당구 야탑로111번길 12, (야탑동)",3,37.4107267,127.1315243,2018.4.1,경기도 성남시 분당구 야탑1동 368-17번지 앞,,,,,,,,,,,
경기도 성남시 분당구 야탑로 20,2,37.4076944,127.1212913,2018.4.1,경기도 성남시 분당구 야탑2동 536번지 탑마을지하보도(105동 늘사랑어린이집 앞),,,,,,,,,,,
"경기도 성남시 분당구 판교로 647, 상탑초등학교  정문(야탑동)",2,37.4061599,127.1456792,2018.4.1,경기도 성남시 분당구 야탑3동 161번지 상탑초등학교 정문,,,,,,,,,,,
"경기도 성남시 분당구 새나리로6번길 15, (야탑동)",3,37.4039757,127.1557834,2018.4.1,경기도 성남시 분당구 야탑3동 155-5번지,,,,,,,,,,,
"경기도 성남시 중원구 성남대로 1157, 출구자전거횡단보도 8호 모란역 번(성남동)",2,37.4332611,127.1287545,2018.4.1,경기도 성남시 중원구 성남동 4130번지 모란역 8번출구 자전거횡단보도,,,,,,,,,,,
"경기도 성남시 중원구 제일로 36, 중원구청 지하층  중원보도  민원실앞(성남동)",2,37.382821,127.118925,2018.4.1,경기도 성남시 중원구 성남동 3129번지 중원지하보도(중원구청 민원실앞),,,,,,,,,,,
"경기도 성남시 중원구 광명로142번길 13-1, (성남동)",5,37.436501,127.144611,2018.4.1,경기도 성남시 중원구 성남동 2708번지,,,,,,,,,,,
"경기도 성남시 중원구 둔촌대로151번길 44, 107동  (성남동, 삼성슈퍼빌)",3,37.429841,127.130991,2018.4.1,경기도 성남시 중원구 성남동 4116-6번지,,,,,,,,,,,
"경기도 성남시 중원구 광명로142번길 23, 전봇대설치  (성남동)",2,37.436551,127.145201,2018.4.1,경기도 성남시 중원구 성남동 2690번지 전봇대 설치,,,,,,,,,,,
"경기도 성남시 중원구 광명로 226-13, 1호 경노당 앞 공원어린이놀이터(중앙동)",1,37.4406729,127.1521273,2018.4.1,경기도 성남시 중원구 중앙동 2570번지 제1경노당 앞 공원어린이놀이터,,,,,,,,,,,
"경기도 성남시 중원구 광명로256번길 47, 건너편 계단입구(중앙동, 세종빌라)",1,37.4405511,127.1583461,2018.4.1,경기도 성남시 중원구 중앙동 1705번지 세종빌라 건너편 계단입구,,,,,,,,,,,
"경기도 성남시 중원구 희망로367번길 38, 꽃마을어린이놀이터아파트  (상대원동)",3,37.4387332,127.1546002,2018.4.1,경기도 성남시 중원구 상대원2동 3393번지 꽃마을어린이놀이터,,,,,,,,,,,
"경기도 성남시 중원구 희망로317번길 13-2, (상대원동)",2,37.4342593,127.1573061,2018.4.1,경기도 성남시 중원구 상대원2동 5288번지,,,,,,,,,,,
"경기도 성남시 중원구 희망로327번길 17, 석유집앞  (상대원동)",3,37.4349723,127.1563595,2018.4.1,경기도 성남시 중원구 상대원2동 5158번지(석유집 앞),,,,,,,,,,,
"경기도 성남시 중원구 희망로335번길 50-13, 노상주차장쪽  (상대원동)",3,37.4368018,127.1529473,2018.4.1,경기도 성남시 중원구 상대원2동 4735번지(노상주차장 쪽),,,,,,,,,,,
,1,37.4397865,127.1571739,2018.4.1,경기도 성남시 중원구 상대원2동 3105번지,,,,,,,,,,,
"경기도 성남시 중원구 희망로343번길 24, 대원초등학교  (상대원동)",1,37.436872,127.1554355,2018.4.1,경기도 성남시 중원구 상대원2동 4251번지(대원초등학교),,,,,,,,,,,
"경기도 성남시 중원구 희망로327번길 20-8, (상대원동)",2,37.435401,127.156001,2018.4.1,경기도 성남시 중원구 상대원2동 4886번지,,,,,,,,,,,
,3,37.407082,127.1470455,2018.4.1,경기도 성남시 분당구 야탑3동 178번지 양촌어린이공원,,,,,,,,,,,
"경기도 성남시 분당구 야탑로231번길 45, 602동  앞 도로상(야탑동, 목련마을미원6단지)",3,37.4083078,127.1484913,2018.4.1,경기도 성남시 분당구 야탑3동 183번지 (빌라 602동 앞 도로상),,,,,,,,,,,
"경기도 성남시 분당구 판교로592번길 13, 영덕여고입구  (야탑동)",5,37.4053084,127.1386169,2018.4.1,경기도 성남시 분당구 야탑3동 455번지 영덕여고 입구,,,,,,,,,,,
"경기도 성남시 분당구 판교로 685, 서광어린이집  (야탑동)",4,37.4056167,127.1494089,2018.4.1,경기도 성남시 분당구 야탑3동 152번지(서광어린이집),,,,,,,,,,,
"경기도 성남시 분당구 장미로122번길 3-1, (야탑동)",3,37.3766914,127.1246814,2018.4.1,경기도 성남시 분당구 야탑3동 288-1번지,,,,,,,,,,,
"경기도 성남시 분당구 불정로 260, 앞공영주차장쪽  (수내동)",3,37.3667682,127.1273319,2018.4.1,경기도 성남시 분당구 수내3동 88-5번지 앞(공영주차장 쪽),,,,,,,,,,,
"경기도 성남시 수정구 남문로 59, 경희유치원주변  (태평동)",5,37.4460188,127.1334444,2018.4.1,경기도 성남시 수정구 태평3동 3919-1번지 경희유치원 주변,,,,,,,,,,,
"경기도 성남시 수정구 수정북로 34, (태평동)",3,37.4421581,127.1334434,2018.4.1,경기도 성남시 수정구 태평3동 3632번지,,,,,,,,,,,
"경기도 성남시 수정구 남문로31번길 18, (태평동, 부광맨션)",3,37.4464251,127.129891,2018.4.1,경기도 성남시 수정구 태평3동 4344-2번지,,,,,,,,,,,
"경기도 성남시 수정구 남문로32번길 7, 태평초등학교  (태평동)",1,37.4446438,127.1313646,2018.4.1,경기도 성남시 수정구 태평3동 3743번지(태평초등학교),,,,,,,,,,,
"경기도 성남시 수정구 태평로 19, 성남서초등학교  (태평동)",1,37.4486537,127.1295775,2018.4.1,경기도 성남시 수정구 태평3동 5090-1번지(성남서초등학교),,,,,,,,,,,
"경기도 성남시 분당구 발이봉남로12번길 4, (수내동)",1,37.3648869,127.1262145,2018.4.1,경기도 성남시 분당구 수내3동 101-5번지 발이봉길,,,,,,,,,,,
"경기도 성남시 수정구 제일로238번길 10, 맞은편전봇대  (태평동)",5,37.447591,127.129611,2018.4.1,경기도 성남시 수정구 태평3동 4389번지 맞은편 전봇대,,,,,,,,,,,
"경기도 성남시 중원구 희망로366번길 5-3, (상대원동)",2,37.438391,127.158951,2018.4.1,경기도 성남시 중원구 상대원2동 2996-54번지,,,,,,,,,,,
"경기도 성남시 중원구 희망로327번길 6-6, (상대원동)",3,37.435331,127.157531,2018.4.1,경기도 성남시 중원구 상대원2동 4757-5번지,,,,,,,,,,,
"경기도 성남시 중원구 박석로97번길 16, 뜸쑥어린이놀이터부근  (상대원동)",5,37.4403912,127.163036,2018.4.1,경기도 성남시 중원구 상대원3동 2327 뜸쑥어린이놀이터 부근,,,,,,,,,,,
"경기도 성남시 중원구 박석로49번길 28, (상대원동)",3,37.437321,127.162951,2018.4.1,경기도 성남시 중원구 상대원3동 2637번지,,,,,,,,,,,
"경기도 성남시 중원구 박석로86번길 2, 부근  (상대원동)",2,37.4403631,127.1649547,2018.4.1,경기도 성남시 중원구 상대원3동 853 부근,,,,,,,,,,,
,3,37.4425309,127.1676175,2018.4.1,경기도 성남시 중원구 상대원3동 587 푸른솔어린이놀이터,,,,,,,,,,,
"경기도 성남시 중원구 금상로30번길 5-4, (상대원동, 성진빌라)",3,37.4382334,127.1609795,2018.4.1,경기도 성남시 중원구 상대원3동 2976 부근,,,,,,,,,,,
"경기도 성남시 중원구 희망로326번길 5-12, 먹자곱창옆  (상대원동)",2,37.4356583,127.1589902,2018.4.1,경기도 성남시 중원구 상대원3동 2984-15번지 먹자곱창 옆,,,,,,,,,,,
"경기도 성남시 중원구 박석로72번길 12-2, (상대원동)",3,37.4394253,127.1667091,2018.4.1,경기도 성남시 중원구 상대원3동 910번지,,,,,,,,,,,
"경기도 성남시 분당구 분당수서로 442, 정자초등학교  주변(정자동)",2,37.3741236,127.1051116,2018.4.1,경기도 성남시 분당구 정자1동 6-2번지 정자초등학교 주변,,,,,,,,,,,
,2,37.3662515,127.1081283,2018.4.1,경기도 성남시 분당구 정자1동 97-4번지 백궁지하보도(성남대로변 인도),,,,,,,,,,,
"경기도 성남시 분당구 성남대로 345, 정자역 4호 번출구(정자동)",4,37.366441,127.107681,2018.4.1,경기도 성남시 분당구 정자1동 26(정자역 4번 출구),,,,,,,,,,,
"경기도 성남시 중원구 희망로367번길 32, (상대원동)",4,37.438611,127.154831,2018.4.1,경기도 성남시 중원구 상대원2동 3392번지,,,,,,,,,,,
,1,37.3704978,127.1167369,2018.4.1,경기도 성남시 분당구 정자2동 103번지 능골공원내 물놀이장 부근,,,,,,,,,,,
,1,37.3666574,127.1169556,2018.4.1,경기도 성남시 분당구 정자2동 114번지 한솔어린이공원(분당49호),,,,,,,,,,,
,1,37.366531,127.1221619,2018.4.1,경기도 성남시 분당구 정자2동 108번지 철쭉공원(분당48호),,,,,,,,,,,
"경기도 성남시 분당구 동판교로177번길 25, (삼평동, 판교호반써밋플레이스)",1,37.4062829,127.1164218,2018.4.1,경기도 성남시 삼평동 740번지 푸르지오 월드마크입구,,,,,,,,,,,
,1,37.3910591,127.0925365,2018.4.1,경기도 성남시 분당구 판교동 611-5번지 F7-1블럭 주택지역 내 커피전문점(피크닉장) 옆,,,,,,,,,,,
경기도 성남시 분당구 앞사거리,5,37.3877741,127.0870864,2018.4.1,경기도 성남시 분당구 판교동 633-1번지 판교중학교 앞 사거리,,,,,,,,,,,
"경기도 성남시 분당구 판교원로 255, E9동  주택지역  방향 내(판교동, 판교원마을8단지상록아파트)",1,37.3869407,127.0977181,2018.4.1,경기도 성남시 분당구 판교동 641-8번지 E9-1블럭 주택지역(원마을 8단지 방향) 내,,,,,,,,,,,
"경기도 성남시 수정구 공원로379번길 18-1, (신흥동)",1,37.4440306,127.1454837,2018.4.1,경기도 성남시 수정구 신흥3동 3231,,,,,,,,,,,
"경기도 성남시 수정구 모란로145번길 2, (태평동)",1,37.4460852,127.1262817,2018.4.1,경기도 성남시 수정구 태평1동 7123-7,,,,,,,,,,,
"경기도 성남시 수정구 수정로153번길 18-5, (태평동)",1,37.4440509,127.1368607,2018.4.1,경기도 성남시 수정구 태평2동 3345-1,,,,,,,,,,,
"경기도 성남시 수정구 남문로 142, 새마을금고앞  (태평동)",1,37.4482598,127.1421943,2018.4.1,경기도 성남시 수정구 태평4동 7296-17새마을금고 앞,,,,,,,,,,,
"경기도 성남시 수정구 논골로53번길 1, (단대동)",1,37.4584538,127.1583919,2018.4.1,경기도 성남시 수정구 단대동 50-1,,,,,,,,,,,
"경기도 성남시 수정구 수정남로324번길 6, 다동  (산성동, 신성빌라)",1,37.456173,127.1534487,2018.4.1,경기도 성남시 수정구 산성동 410,,,,,,,,,,,
,1,37.4538081,127.1528695,2018.4.1,경기도 성남시 수정구 산성동 1794,,,,,,,,,,,
,1,37.4599225,127.1351772,2018.4.1,경기도 성남시 수정구 복정동 130-1,,,,,,,,,,,
"경기도 성남시 분당구 동판교로 156, 앞 저류지 내부 전망대 앞(삼평동, 봇들마을9단지금호어울림아파트)",1,37.398377,127.1185321,2018.4.1,경기도 성남시 분당구 삼평동 745번지 봇들마을 9단지 앞 저류지 내부(전망대 앞),,,,,,,,,,,
,1,37.3959016,127.1173731,2018.4.1,경기도 성남시 분당구 삼평동 139-1번지(보평초등학교),,,,,,,,,,,
"경기도 성남시 수정구 시민로241번길 7, 영광약국부근  (태평동)",5,37.4489817,127.1393769,2018.4.1,경기도 성남시 수정구 태평4동 2487번지 영광약국 부근,,,,,,,,,,,
"경기도 성남시 수정구 남문로 112, 금빛초등학교  후문(태평동)",3,37.4479084,127.1409336,2018.4.1,경기도 성남시 수정구 태평4동 7290번지 금빛초등학교 후문,,,,,,,,,,,
"경기도 성남시 수정구 대왕판교로915번길 17, 동산슈퍼위  (시흥동)",2,37.421901,127.0998258,2018.4.1,경기도 성남시 수정구 시흥동 211-38번지 동산슈퍼 위,,,,,,,,,,,
,3,37.4276518,127.1114036,2018.4.1,경기도 성남시 수정구 시흥동 129-5번지(거창농원앞),,,,,,,,,,,
"경기도 성남시 수정구 대왕판교로915번길 13, 동산마을어린이놀이터아파트  (시흥동)",1,37.421774,127.1006476,2018.4.1,경기도 성남시 수정구 시흥동 211-50번지 동산마을어린이놀이터,,,,,,,,,,,
,2,37.4183559,127.1175747,2018.4.1,경기도 성남시 수정구 사송동 600-2번지 방범초소 길 건너편,,,,,,,,,,,
"경기도 성남시 수정구 설개로14번길 24, (시흥동, 상록로즈빌)",4,37.420561,127.104011,2018.4.1,경기도 성남시 수정구 시흥동 83-2번지,,,,,,,,,,,
"경기도 성남시 수정구 대왕판교로972번길 15, (시흥동)",5,37.427321,127.104151,2018.4.1,경기도 성남시 수정구 시흥동 156-12번지,,,,,,,,,,,
"경기도 성남시 중원구 광명로82번길 13, GS편의점앞  (성남동)",4,37.4340378,127.1391596,2018.4.1,경기도 성남시 중원구 성남동 2355번지 GS편의점 앞,,,,,,,,,,,
,1,37.4334828,127.1428842,2018.4.1,경기도 성남시 중원구 성남동 2946번지 대원테니스장옆,,,,,,,,,,,
"경기도 성남시 중원구 원터로75번길 20, (성남동, 장군빌라)",1,37.4329007,127.1409156,2018.4.1,경기도 성남시 중원구 성남동 3107번지,,,,,,,,,,,
"경기도 성남시 중원구 순환로214번길 16, 상대원초등학교  정문(상대원동)",3,37.4423689,127.1814017,2018.4.1,경기도 성남시 중원구 상대원1동 54번지 상대원초등학교 정문,,,,,,,,,,,
"경기도 성남시 중원구 박석로25번길 39, 지분도유치원앞  (상대원동)",3,37.4349589,127.1614383,2018.4.1,경기도 성남시 중원구 상대원1동 1921지(분도유치원) 앞,,,,,,,,,,,
"경기도 성남시 분당구 정자로 115, 503동  (정자동, 한솔마을주공5차아파트)",3,37.3648876,127.1168111,2018.4.1,경기도 성남시 분당구 정자2동 116-2번지 한솔마을 503동 앞 보행자길,,,,,,,,,,,
경기도 성남시 분당구 진입로,3,37.3704978,127.1167369,2018.4.1,경기도 성남시 분당구 정자2동 103번지 (능골공원 한솔마을 708동 진입로),,,,,,,,,,,
,4,37.366151,127.119631,2018.4.1,경기도 성남시 분당구 정자2동 106-3번지,,,,,,,,,,,
,3,37.3766914,127.1246814,2018.4.1,경기도 성남시 분당구 정자2동 104-2번지,,,,,,,,,,,
,2,37.3673922,127.1225726,2018.4.1,경기도 성남시 분당구 정자2동 108번지 수내지하보도(수내119 안전센터 맞은편),,,,,,,,,,,
"경기도 성남시 분당구 불곡남로 43, 부근  (정자동)",2,37.3567849,127.1251983,2018.4.1,경기도 성남시 분당구 정자3동 234-11번지 부근,,,,,,,,,,,
"경기도 성남시 분당구 불곡남로25번길 16, 부근  (정자동)",3,37.3580872,127.1252519,2018.4.1,경기도 성남시 분당구 정자3동 235-1번지 부근,,,,,,,,,,,
"경기도 성남시 분당구 불곡남로14번길 8, 부근기존 226동 6호 번지로 표기(정자동)",3,37.3582946,127.1228317,2018.4.1,경기도 성남시 분당구 정자3동 227-6번지 부근(기존 226-6번지로 표기),,,,,,,,,,,
"경기도 성남시 분당구 불곡로7번길 8, (정자동)",1,37.3607965,127.1195385,2018.4.1,경기도 성남시 분당구 정자3동 222-1,,,,,,,,,,,
"경기도 성남시 분당구 불곡북로25번길 8, (정자동)",4,37.359775,127.1261345,2018.4.1,경기도 성남시 분당구 정자3동 246-1번지,,,,,,,,,,,
,3,37.3589613,127.1244921,2018.4.1,경기도 성남시 분당구 정자3동 239번지 산자락어린이공원,,,,,,,,,,,
"경기도 성남시 분당구 돌마로 250, 불정초등학교  정문(정자동)",2,37.3617078,127.1200024,2018.4.1,경기도 성남시 분당구 정자3동 203번지 불정초등학교 정문,,,,,,,,,,,
"경기도 성남시 수정구 제일로110번길 18, 머리나라미용실부근  (수진동)",3,37.4369525,127.1357357,2018.4.1,경기도 성남시 수정구 수진1동 2431번지 머리나라미용실 부근,,,,,,,,,,,
"경기도 성남시 분당구 돌마로 303, 한솔초등학교  정문(정자동)",1,37.365951,127.115211,2018.4.1,경기도 성남시 분당구 정자2동 105-6번지 한솔초등학교 정문,,,,,,,,,,,
"경기도 성남시 수정구 산성대로149번길 5, 부근  (수진동)",5,37.435683,127.1352455,2018.4.1,경기도 성남시 수정구 수진1동 2707번지 부근,,,,,,,,,,,
"경기도 성남시 수정구 탄리로 21, 미리내어린이놀이터  (수진동)",3,37.4384896,127.1386754,2018.4.1,경기도 성남시 수정구 수진1동 1921번지 미리내 어린이놀이터,,,,,,,,,,,
,3,37.4051963,127.0986731,2018.4.1,경기도 성남시 분당구 삼평동 614 빛나래어린이공원,,,,,,,,,,,
"경기도 성남시 분당구 판교역로192번길 16, 변경전:백현동 663동 1호 삼거리 번지(삼평동)",1,37.397859,127.1112156,2018.4.1,경기도 성남시 분당구 삼평동 662번지 보행자도로 삼거리(변경전 : 백현동 663-1번지),,,,,,,,,,,
"경기도 성남시 분당구 대왕판교로606번길 31, 대로변인도 641동 651호 번지 맞은편 변경전 : 백현동 2번지(삼평동)",1,37.396295,127.1111244,2018.4.1,경기도 성남시 분당구 삼평동 647번지 대로변 인도 / 651번지 맞은편(변경전 : 백현동 641-2번지),,,,,,,,,,,
"경기도 성남시 분당구 동판교로 153, 801동 740-1호 번지(삼평동, 봇들마을8단지주공휴먼시아아파트)",1,37.3960521,127.1141499,2018.4.1,경기도 성남시 분당구 삼평동 742번지 801동앞 인도변(변경전 : 백현동 740-1번지),,,,,,,,,,,
"경기도 성남시 수정구 가마절로 2, 거리(복정동)",3,37.4622037,127.1416868,2018.4.1,경기도 성남시 수정구 복정동 49-2번지 우남로 삼거리,,,,,,,,,,,
경기도 성남시 수정구 단대천교앞분당수서간진입중앙로,2,37.4329234,127.1247003,2018.4.1,"경기도 성남시 수정구 수진2동 4758-11번지 단대천교앞, 분당수서간진입(중앙로)",,,,,,,,,,,
"경기도 성남시 중원구 순암로 787, 영생관리사업소앞아리랑고개  (갈현동)",1,37.4186182,127.183264,2018.4.1,경기도 성남시 중원구 갈현동 112번지 영생관리사업소 앞 아리랑고개,,,,,,,,,,,
"경기도 성남시 중원구 둔촌대로 567, 이배재고개성남소각장옆  (상대원동)",1,37.432402,127.1818555,2018.4.1,경기도 성남시 중원구 상대원1동 420번지 이배재고개 성남소각장 옆,,,,,,,,,,,
"경기도 성남시 중원구 순환로379번길 20, 은행중학교  (은행동)",1,37.4548405,127.1721687,2018.4.1,경기도 성남시 중원구 은행2동 산61-11번지 은행중학교 부근(순환로),,,,,,,,,,,
"경기도 성남시 분당구 미금로 23, (구미동, 무지개마을대림1단지)",1,37.3381763,127.1162403,2018.4.1,경기도 성남시 분당구 구미동 211번지 무지개마을 대림@ 앞(미금로),,,,,,,,,,,
"경기도 성남시 분당구 중앙공원로39번길 12, 서현초등학교 31호 서현어린이공원 분당 주변(서현동)",2,37.3820487,127.1271136,2018.4.1,경기도 성남시 분당구 서현1동 89-6번지 서현어린이공원(분당31호) 서현초등학교 주변,,,,,,,,,,,
"경기도 성남시 중원구 박석로41번길 25, 앞미용실앞  (상대원동)",3,37.4364824,127.1632222,2018.4.1,경기도 성남시 중원구 상대원1동 1517번지 앞(미용실 앞),,,,,,,,,,,
"경기도 성남시 중원구 박석로57번길 5-1, (상대원동)",1,37.4378635,127.1653418,2018.4.1,경기도 성남시 중원구 상대원1동 1255번지,,,,,,,,,,,
"경기도 성남시 중원구 박석로5번길 12, (상대원동)",4,37.433321,127.164801,2018.4.1,경기도 성남시 중원구 상대원1동 1420-2번지,,,,,,,,,,,
"경기도 성남시 중원구 희망로343번길 24, 대원초등학교 4251호 부근 로표기(상대원동)",2,37.4372636,127.1565862,2018.4.1,경기도 성남시 중원구 상대원2동 4236 대원초등학교 부근(4251로표기),,,,,,,,,,,
"경기도 성남시 중원구 금상로57번길 7, (상대원동, 빛나아트맨션)",3,37.4408364,127.1618296,2018.4.1,경기도 성남시 중원구 상대원2동 2991-2 부근,,,,,,,,,,,
"경기도 성남시 중원구 금상로 9, 부근  (상대원동)",2,37.4372103,127.1587927,2018.4.1,경기도 성남시 중원구 상대원2동 2999-17 부근,,,,,,,,,,,
"경기도 성남시 분당구 수내로192번길 12, 수내중  초입(수내동)",4,37.370401,127.127211,2018.4.1,경기도 성남시 분당구 수내3동 78번지 수내중 옆 보행자도로 초입,,,,,,,,,,,
"경기도 성남시 분당구 불정로 288, 샛별중학교  (수내동)",5,37.369161,127.128891,2018.4.1,경기도 성남시 분당구 수내3동 164-3번지 샛별중학교,,,,,,,,,,,
"경기도 성남시 분당구 황새울로 4, 분당중학교  부근(정자동)",1,37.3609216,127.1114648,2018.4.1,경기도 성남시 분당구 정자동 143-1번지 분당중학교부근,,,,,,,,,,,
"경기도 성남시 분당구 황새울로 74, 신기초등학교  주변(정자동)",3,37.3667436,127.1105123,2018.4.1,경기도 성남시 분당구 정자동 89번지 신기초등학교 주변,,,,,,,,,,,
"경기도 성남시 분당구 황새울로132번길 16-1, 맞은편학교  쪽(정자동)",3,37.3727556,127.1114751,2018.4.1,경기도 성남시 분당구 정자동 35-8번지 맞은편(학교쪽),,,,,,,,,,,
"경기도 성남시 분당구 내정로7번길 24, 앞은혜유치원  (정자동)",1,37.360902,127.1119464,2018.4.1,경기도 성남시 분당구 정자동 144번지 앞(은혜유치원),,,,,,,,,,,
"경기도 성남시 수정구 탄리로23번길 11-1, (수진동)",3,37.4382633,127.1375672,2018.4.1,경기도 성남시 수정구 수진1동 1899번지 앞,,,,,,,,,,,
"경기도 성남시 수정구 제일로124번길 18, (수진동)",3,37.4381432,127.1349981,2018.4.1,경기도 성남시 수정구 수진1동 1515번지 앞,,,,,,,,,,,
"경기도 성남시 수정구 산성대로149번길 24-2, (수진동)",1,37.4373747,127.134566,2018.4.1,경기도 성남시 수정구 수진1동 1373번지,,,,,,,,,,,
"경기도 성남시 수정구 탄리로 21, 성현어린이집  (수진동)",3,37.4384896,127.1386754,2018.4.1,경기도 성남시 수정구 수진1동 1921번지(성현어린이집),,,,,,,,,,,
"경기도 성남시 수정구 산성대로173번길 4, (수진동)",3,37.436521,127.137661,2018.4.1,경기도 성남시 수정구 수진1동 2253번지,,,,,,,,,,,
"경기도 성남시 수정구 수정로136번길 30, (수진동)",2,37.439521,127.136251,2018.4.1,경기도 성남시 수정구 수진1동 792번지,,,,,,,,,,,
"경기도 성남시 수정구 제일로98번길 2, (수진동)",5,37.435451,127.134371,2018.4.1,경기도 성남시 수정구 수진1동 2679-33번지,,,,,,,,,,,
"경기도 성남시 수정구 탄리로 39, (수진동)",5,37.440091,127.136791,2018.4.1,경기도 성남시 수정구 수진1동 664번지,,,,,,,,,,,
"경기도 성남시 수정구 수정남로54번길 1, (수진동)",3,37.440381,127.133741,2018.4.1,경기도 성남시 수정구 수진1동 273번지,,,,,,,,,,,
"경기도 성남시 수정구 산성대로195번길 3, (수진동)",5,37.437521,127.139541,2018.4.1,경기도 성남시 수정구 수진1동 2167번지,,,,,,,,,,,
"경기도 성남시 수정구 산성대로173번길 5-1, (수진동)",5,37.436761,127.137501,2018.4.1,경기도 성남시 수정구 수진1동 2545번지,,,,,,,,,,,
"경기도 성남시 수정구 산성대로149번길 15, (수진동)",5,37.436481,127.134821,2018.4.1,경기도 성남시 수정구 수진1동 2879번지,,,,,,,,,,,
"경기도 성남시 수정구 탄리로 31, 성체유치원주변  (수진동)",4,37.439147,127.1374551,2018.4.1,경기도 성남시 수정구 수진1동 664-2번지 성체유치원 주변,,,,,,,,,,,
,2,37.4383696,127.1288721,2018.4.1,경기도 성남시 수정구 수진2동 3030번지 푸른꿈 어린이놀이터(동사무소 뒤),,,,,,,,,,,
"경기도 성남시 중원구 금상로50번길 8, 부근  (상대원동)",2,37.439379,127.1624493,2018.4.1,경기도 성남시 중원구 상대원3동 2364 부근,,,,,,,,,,,
"경기도 성남시 중원구 둔촌대로389번길 15, 부근계단  (상대원동)",3,37.4348964,127.1602466,2018.4.1,경기도 성남시 중원구 상대원3동 1814 부근 계단,,,,,,,,,,,
"경기도 성남시 분당구 미금로 121, 오리초등학교  주변(구미동)",1,37.3441478,127.1153513,2018.4.1,경기도 성남시 구미동 115번지 오리초등학교 주변,,,,,,,,,,,
"경기도 성남시 분당구 운중로 129, 운중주민센터  (운중동)",1,37.3919266,127.0774065,2018.4.1,경기도 성남시 운중동 963번지 운중주민센터사거리,,,,,,,,,,,
경기도 성남시 분당구 눈꽃어린이공원광장진입로,1,37.3913941,127.0836965,2018.4.1,경기도 성남시 분당구 운중동 1012번지 눈꽃어린이공원 광장 진입로 입구,,,,,,,,,,,
,1,37.3902444,127.0850306,2018.4.1,경기도 성남시 분당구 운중동 1034-4번지 F5-1블럭 주택지역 내 주유소 뒤,,,,,,,,,,,
"경기도 성남시 분당구 산운로 126, 앞 사거리(운중동, 산운마을대방노블랜드9단지)",1,37.3917731,127.0752031,2018.4.1,경기도 성남시 분당구 운중동 898-6번지 대방 노블랜드 앞 사거리 (운중로),,,,,,,,,,,
"경기도 성남시 분당구 산운로170번길 3-3, 주택 E5동  지역 내(운중동)",1,37.3929224,127.0811355,2018.4.1,경기도 성남시 분당구 운중동 1001-5번지 E5-2블럭 주택지역 내,,,,,,,,,,,
,1,37.3922544,127.0808003,2018.4.1,경기도 성남시 분당구 운중동 999-10번지 E5-2블럭 주택지역 내 쓰레기 투입구 앞,,,,,,,,,,,
,1,37.3941795,127.081067,2018.4.1,경기도 성남시 분당구 운중동 991-1번지 배수지 입구,,,,,,,,,,,
"경기도 성남시 분당구 정자일로 100, B동 지하층  야생화보도  맞은편(정자동, 미켈란쉐르빌)",2,37.3576315,127.1080261,2018.4.1,경기도 성남시 분당구 정자동 183-2 야생화지하보도(미켈란 쉐르빌B동 성남대로 맞은편),,,,,,,,,,,
,1,37.3582617,127.1064226,2018.4.1,경기도 성남시 분당구 정자1동 182번지 늘푸른어린이공원(분당56호),,,,,,,,,,,
"경기도 성남시 수정구 시민로257번길 8, 참사랑어린이집부근  (태평동)",3,37.4505229,127.1386063,2018.4.1,경기도 성남시 수정구 태평4동 129번지 참사랑어린이집 부근,,,,,,,,,,,
"경기도 성남시 중원구 희망로326번길 6, (상대원동)",3,37.4350075,127.158671,2018.4.1,경기도 성남시 중원구 상대원3동 2045번지,,,,,,,,,,,
"경기도 성남시 분당구 정자일로 87, 늘푸른초등학교  주변(정자동)",3,37.3580047,127.1052104,2018.4.1,경기도 성남시 분당구 정자1동 178-5 늘푸른초등학교 주변,,,,,,,,,,,
"경기도 성남시 분당구 성남대로343번길 5, 출구사이미관광장 3동 4호 정자역 번(정자동)",5,37.366241,127.107531,2018.4.1,경기도 성남시 분당구 정자1동 26(정자역 3-4번 출구사이 미관광장),,,,,,,,,,,
,1,37.3704978,127.1167369,2018.4.1,경기도 성남시 분당구 정자2동 103번지 능골공원 내 화장실 주변,,,,,,,,,,,
,3,37.3616413,127.1209052,2018.4.1,경기도 성남시 분당구 정자3동 204번지 불정어린이공원(분당54호),,,,,,,,,,,
"경기도 성남시 분당구 내정로 20, 탄천초등학교 53호 정든어린이공원 분당 주변(정자동)",3,37.3615788,127.1165988,2018.4.1,경기도 성남시 분당구 정자3동 196번지 정든어린이공원(분당53호) 탄천초등학교 주변,,,,,,,,,,,
"경기도 성남시 분당구 불곡남로 5, (정자동)",1,37.3607965,127.1195385,2018.4.1,경기도 성남시 분당구 정자3동 225,,,,,,,,,,,
"경기도 성남시 분당구 불곡로25번길 11-1, (정자동)",2,37.3591323,127.1257225,2018.4.1,경기도 성남시 분당구 정자3동 237-18번지,,,,,,,,,,,
"경기도 성남시 분당구 내정로 20, 탄천초등학교  주변(정자동)",3,37.3616378,127.1156439,2018.4.1,경기도 성남시 분당구 정자3동 195번지 탄천초등학교 주변,,,,,,,,,,,
"경기도 성남시 수정구 산성대로157번길 9, 부근  (수진동)",3,37.4362642,127.1358825,2018.4.1,경기도 성남시 수정구 수진1동 2793번지 부근,,,,,,,,,,,
"경기도 성남시 수정구 탄리로 57, 성남벤처빌딩  앞(수진동)",5,37.4411311,127.1357254,2018.4.1,경기도 성남시 수정구 수진1동 587번지 성남벤처빌딩 앞,,,,,,,,,,,
,2,37.4391029,127.1342459,2018.4.1,경기도 성남시 수정구 수진1동 1137번지 산마루 어린이놀이터,,,,,,,,,,,
"경기도 성남시 수정구 탄리로17번길 32, (수진동)",5,37.437191,127.136421,2018.4.1,경기도 성남시 수정구 수진1동 1669번지,,,,,,,,,,,
"경기도 성남시 수정구 수정남로44번길 16, (수진동)",5,37.439021,127.133191,2018.4.1,경기도 성남시 수정구 수진1동 1272번지,,,,,,,,,,,
"경기도 성남시 수정구 탄리로31번길 13, (수진동)",5,37.438641,127.136641,2018.4.1,경기도 성남시 수정구 수진1동 1770번지,,,,,,,,,,,
"경기도 성남시 수정구 수정남로44번길 24, (수진동)",4,37.438371,127.133491,2018.4.1,경기도 성남시 수정구 수진1동 1276-1번지,,,,,,,,,,,
"경기도 성남시 수정구 수정남로62번길 16, (수진동)",4,37.4396179,127.1352335,2018.4.1,경기도 성남시 수정구 수진1동 943번지,,,,,,,,,,,
"경기도 성남시 수정구 산성대로 203, (수진동)",5,37.437731,127.140591,2018.4.1,경기도 성남시 수정구 수진1동 2204번지,,,,,,,,,,,
"경기도 성남시 수정구 모란로 11, 성수초등학교 9호 주변 모란역 번출구(수진동)",3,37.4342306,127.128344,2018.4.1,경기도 성남시 수정구 수진2동 4626번지 성수초등학교 주변 모란역 9번출구,,,,,,,,,,,
경기도 성남시 분당구 대로,1,37.3998419,127.1097329,2018.4.1,경기도 성남시 분당구 삼평동 667-7번지 판교소방서 대로 건너편 저류지 앞 사거리,,,,,,,,,,,
"경기도 성남시 중원구 광명로242번길 11, (중앙동)",1,37.4411905,127.1541351,2018.4.1,경기도 성남시 중원구 중앙동 2209,,,,,,,,,,,
"경기도 성남시 중원구 순환로379번길 27, (은행동)",1,37.4568717,127.1707775,2018.4.1,경기도 성남시 중원구 은행2동 930-1,,,,,,,,,,,
"경기도 성남시 분당구 수내로90번길 26, 초림초등학교  후문(수내동)",1,37.3766994,127.1178501,2018.4.1,경기도 성남시 수내1동 35번지 초림초등학교 후문,,,,,,,,,,,
"경기도 성남시 분당구 내정로 152, 동하나은행앞(수내동, 파크타운롯데아파트)",1,37.3717994,127.1187757,2018.4.1,경기도 성남시 수내2동 55 동신파크 하나은행앞,,,,,,,,,,,
"경기도 성남시 분당구 내정로17번길 2, 대우푸르지오시티앞  (정자동)",1,37.3624708,127.1144606,2018.4.1,경기도 성남시 정자1동 127-3 대우푸르지오시티앞,,,,,,,,,,,
"경기도 성남시 분당구 정자일로 165, 분당경찰서  주변(정자동)",1,37.365284,127.105381,2018.4.1,경기도 성남시 정자1동 160 분당경찰서주변,,,,,,,,,,,
"경기도 성남시 분당구 정자일로 87, 늘푸른초등학교  주변(정자동)",1,37.3581459,127.1052408,2018.4.1,경기도 성남시 정자1동 178-5 늘푸른초등학교 주변,,,,,,,,,,,
"경기도 성남시 분당구 황새울로311번길 37, 성남교육지원청앞  (서현동)",1,37.3873123,127.1203411,2018.4.1,경기도 성남시 서현1동 259-3 성남교육지원청앞,,,,,,,,,,,
"경기도 성남시 분당구 중앙공원로32번길 20, 분당초등학교  주변(서현동)",1,37.3786438,127.1296823,2018.4.1,경기도 성남시 서현1동 92-1번지 분당초등학교 주변,,,,,,,,,,,
"경기도 성남시 분당구 돌마로476번길 30, 서당초등학교  주변(서현동)",1,37.3745552,127.1347709,2018.4.1,경기도 성남시 서현2동 303번지 서당초등학교 주변,,,,,,,,,,,
"경기도 성남시 분당구 양현로 104, 안말초등학교  정문(이매동)",1,37.3931447,127.1259073,2018.4.1,경기도 성남시 이매1동 118번지 안말초등학교 정문,,,,,,,,,,,
경기도 성남시 분당구 경수고속도로,2,37.3951687,127.0775753,2018.4.1,경기도 성남시 분당구 운중동 921-3번지 경수고속도로 서판교 IC사거리 진입부,,,,,,,,,,,
"경기도 성남시 분당구 판교원로82번길 30, 앞(운중동, 산운마을태영13단지)",4,37.3951687,127.0775753,2018.4.1,경기도 성남시 분당구 운중동 922-3번지 두밀사거리 태영데시앙 아파트 앞,,,,,,,,,,,
"경기도 성남시 분당구 판교원로82번길 60, 옆(운중동, 산운마을경남아너스빌14단지)",2,37.384421,127.074115,2018.4.1,경기도 성남시 분당구 운중동 916번지 두밀사거리 경남아너스빌 옆,,,,,,,,,,,
"경기도 성남시 분당구 대왕판교로645번길 21, 판교IC진입부  (삼평동)",4,37.399494,127.1037992,2018.4.1,경기도 성남시 분당구 삼평동 637번지 판교IC 진입부,,,,,,,,,,,
"경기도 성남시 중원구 원터로69번길 10-1, 맞은편전주  (성남동)",1,37.432881,127.1420105,2018.4.1,경기도 성남시 중원구 성남동 2964 맞은편 전주,,,,,,,,,,,
"경기도 성남시 중원구 광명로264번길 26-2, 2호 노인정 가로등(중앙동, 새한아트빌라)",1,37.4416279,127.1577159,2018.4.1,경기도 성남시 중원구 중앙동 1906 맞은편 제2노인정 가로등,,,,,,,,,,,
"경기도 성남시 중원구 은행로 85, (은행동)",1,37.4520515,127.1689274,2018.4.1,경기도 성남시 중원구 은행1동 2192,,,,,,,,,,,
"경기도 성남시 중원구 산성대로518번길 23, (은행동, 동신빌라)",1,37.4561436,127.1661615,2018.4.1,경기도 성남시 중원구 은행2동 1426-1,,,,,,,,,,,
,1,37.4544171,127.1637257,2018.4.1,경기도 성남시 중원구 은행2동 1822-1,,,,,,,,,,,
"경기도 성남시 중원구 금빛로98번길 14-2, (금광동)",1,37.4464141,127.1651494,2018.4.1,경기도 성남시 중원구 금광2동 2782,,,,,,,,,,,
"경기도 성남시 중원구 둔촌대로413번길 13, (상대원동)",1,37.4342681,127.162672,2018.4.1,경기도 성남시 중원구 상대원1동 1692,,,,,,,,,,,
"경기도 성남시 중원구 희망로360번길 7, (상대원동)",1,37.438043,127.1589144,2018.4.1,경기도 성남시 중원구 상대원2동 2996-30,,,,,,,,,,,
"경기도 성남시 중원구 박석로86번길 14, (상대원동)",1,37.4407817,127.1660823,2018.4.1,경기도 성남시 중원구 상대원3동 836,,,,,,,,,,,
"경기도 성남시 중원구 둔촌대로 250, (하대원동)",1,37.4282099,127.1460082,2018.4.1,경기도 성남시 중원구 하대원동 145,,,,,,,,,,,
,1,37.3947281,127.1149208,2018.4.1,경기도 성남시 분당구 백현동 542-1번지 판교역 건너편(봇들마을 8단지) 나들이 공원 입구,,,,,,,,,,,
경기도 성남시 분당구 경수고속도로,2,37.3951687,127.0775753,2018.4.1,경기도 성남시 분당구 운중동 914번지 경수고속도로 서판교 IC사거리 진출부,,,,,,,,,,,
경기도 성남시 분당구 대왕판교로 477,1,37.3868705,127.1002632,2018.4.1,경기도 성남시 분당구 판교동 647번지 낙생고등학교 후문 (휴계공원 입구),,,,,,,,,,,
,1,37.3875905,127.0995826,2018.4.1,경기도 성남시 분당구 판교동 639-4번지 E9-1블럭 주택지역 내 운중천변 (구름다리 입구),,,,,,,,,,,
,1,37.3861036,127.098534,2018.4.1,경기도 성남시 분당구 판교동 657-1번지 E9-1블럭 주택지역 내 판교 가압장 앞,,,,,,,,,,,
경기도 성남시 분당구 후문도로,3,37.386151,127.0997932,2018.4.1,경기도 성남시 분당구 판교동 649-2번지 낙생고등학교 후문 도로 반대편 (판교 가압장),,,,,,,,,,,
"경기도 성남시 분당구 서판교로180번길 18-2, 판교공원내원마을13단지  방향(판교동)",1,37.4022329,127.0949281,2018.4.1,경기도 성남시 분당구 판교동 500번지 판교공원 내 (원마을 13단지 방향),,,,,,,,,,,
"경기도 성남시 분당구 서판교로180번길 18-2, 판교공원내 E13동  방향(판교동)",1,37.4022329,127.0949281,2018.4.1,경기도 성남시 분당구 판교동 500번지 판교공원 내 (E13-1블럭 방향),,,,,,,,,,,
경기도 성남시 분당구 내보행자출입로,1,37.4027724,127.0937562,2018.4.1,경기도 성남시 분당구 판교동 486-12번지 E13-1블럭 내 보행자 출입로 사거리,,,,,,,,,,,
,1,37.4027724,127.0937562,2018.4.1,경기도 성남시 분당구 판교동 486-12번지 바람개비어린이공원 내부,,,,,,,,,,,
경기도 성남시 분당구 가칭앞삼거리,1,37.4018562,127.0932185,2018.4.1,경기도 성남시 분당구 판교동 492-2번지 삼평고등학교(가칭) 앞 삼거리,,,,,,,,,,,
,1,37.4021004,127.0954114,2018.4.1,경기도 성남시 분당구 판교동 501-9번지 E13-1블럭 내부,,,,,,,,,,,
,1,37.4019965,127.0965255,2018.4.1,경기도 성남시 분당구 판교동 506-15번지 E13-1블럭 내부 (자동크린넷 주변),,,,,,,,,,,
,1,37.3863006,127.0994564,2018.4.1,경기도 성남시 분당구 판교동 649-3번지 E9-1블럭 사이 도로변,,,,,,,,,,,
,3,37.3951017,127.1168697,2018.4.1,경기도 성남시 분당구 백현동 544-1번지 807동 건너편 나들이 공원내(변경전 : 백현동 542-1번지),,,,,,,,,,,
"경기도 성남시 분당구 동판교로 124, 보평고후문변경전 743동 2호 : 백현동 번지(백현동)",5,37.394505,127.1182644,2018.4.1,경기도 성남시 분당구 백현동 544번지 보평고 후문(변경전 : 백현동 743-2번지),,,,,,,,,,,
경기도 성남시 분당구 앞삼거리,4,37.3933343,127.1177436,2018.4.1,경기도 성남시 분당구 백현동 544-3번지 석운고등학교 차량 진출입구 앞 삼거리,,,,,,,,,,,
"경기도 성남시 분당구 판교역로 75, 낙생대공원내부  팔각정 앞(백현동)",1,37.3868947,127.1061234,2018.4.1,경기도 성남시 분당구 백현동 523번지 낙생대 공원 내부 팔각정 앞,,,,,,,,,,,
,1,37.3861228,127.1041777,2018.4.1,경기도 성남시 분당구 백현동 524번지 납골공원 주차장 입구,,,,,,,,,,,
"경기도 성남시 분당구 판교역로 75, 생태공원내부 1호 (백현동)",1,37.3868947,127.1061234,2018.4.1,경기도 성남시 분당구 백현동 523번지 생태공원 내부 (1),,,,,,,,,,,
,3,37.3881108,127.1151611,2018.4.1,경기도 성남시 분당구 백현동 546-6번지 율곡초등학교 정문 앞,,,,,,,,,,,
"경기도 성남시 분당구 동판교로 91, 앞 삼평어린이공원 내부(백현동, 백현마을4단지)",1,37.3889985,127.1159499,2018.4.1,경기도 성남시 분당구 백현동 548번지 백현마을 4단지 앞 삼평어린이공원 내부,,,,,,,,,,,
경기도 성남시 분당구 보행자도로,1,37.3866055,127.1097898,2018.4.1,경기도 성남시 분당구 백현동 558-3번지 삼평고 / 하산초 사이 보행자 도로 내부,,,,,,,,,,,
,1,37.3870974,127.1113523,2018.4.1,경기도 성남시 분당구 백현동 558-6번지 신백현초등학교 입구 앞 (주택지역 방향),,,,,,,,,,,
,3,37.3947281,127.1149208,2018.4.1,경기도 성남시 분당구 백현동 542-1번지 보평중학교 주차장 앞 나들이 공원 내,,,,,,,,,,,
"경기도 성남시 분당구 판교역로2번길 32, 변경전:백현동 600동 5호 번지(백현동)",1,37.3864518,127.1122441,2018.4.1,경기도 성남시 분당구 백현동 560-4번지(변경전 : 백현동 600-5번지),,,,,,,,,,,
"경기도 성남시 분당구 동원로 4, 쌍용자동차맞은편  (동원동)",1,37.3451036,127.1009425,2018.4.1,경기도 성남시 분당구 동원동 59-20번지 쌍용자동차 맞은편,,,,,,,,,,,
경기도 성남시 분당구 역사공원앞삼거리,1,37.4009932,127.095921,2018.4.1,경기도 성남시 분당구 판교동 500-9번지 E13-1블럭 내부 역사공원 앞 삼거리,,,,,,,,,,,
경기도 성남시 분당구 판교로,1,37.399658,127.0942108,2018.4.1,경기도 성남시 분당구 판교동 494-2번지 판교로 주변 (성내미 터널 앞 사거리),,,,,,,,,,,
경기도 성남시 분당구 후문방향앞보행자진입로,1,37.3995239,127.0960295,2018.4.1,경기도 성남시 분당구 판교동 511-8번지 낙원중학교 후문방향 앞 보행자 진입로,,,,,,,,,,,
경기도 성남시 분당구 내보행자도로,1,37.3971311,127.0994722,2018.4.1,경기도 성남시 분당구 판교동 509-12번지 E12-1블럭 내 보행자 도로 (경부고속도로 인근),,,,,,,,,,,
"경기도 성남시 분당구 판교역로 6, 변경전:백현동 622동 12호 번지(백현동)",1,37.3837519,127.1119812,2018.4.1,경기도 성남시 분당구 백현동 581-5번지(변경전 : 백현동 622-12번지),,,,,,,,,,,
,1,37.3837978,127.1130648,2018.4.1,경기도 성남시 분당구 백현동 584번지 보물섬어린이공원 내부,,,,,,,,,,,
"경기도 성남시 분당구 동판교로52번길 3-8, 맞은편  (백현동)",3,37.3878264,127.1149323,2018.4.1,경기도 성남시 분당구 백현동 604-3번지 맞은편,,,,,,,,,,,
"경기도 성남시 분당구 동판교로52번길 11, 건물사이변경전 634동 4호 : 백현동 번지(백현동)",1,37.3869358,127.1145724,2018.4.1,경기도 성남시 분당구 백현동 605-11번지 건물사이(변경전 : 백현동 634-4번지),,,,,,,,,,,
"경기도 성남시 분당구 동판교로52번길 16-6, 입구변경전 634동 4호 : 백현동 번지(백현동)",1,37.3867143,127.1137831,2018.4.1,경기도 성남시 분당구 백현동 595-1번지 보행자도로 입구(변경전 : 백현동 634-4번지),,,,,,,,,,,
"경기도 성남시 분당구 동판교로52번길 17-9, 맞은편물방울어린이공원입구변경전 646호 : 백현동 번지(백현동)",4,37.386371,127.115531,2018.4.1,경기도 성남시 분당구 백현동 592-5번지 맞은편 물방울어린이공원 입구(변경전 : 백현동 646번지),,,,,,,,,,,
,1,37.380158,127.091844,2018.4.1,경기도 성남시 분당구 백현동 625-5번지 F10-1블럭 내부 자동크린넷 앞,,,,,,,,,,,
"경기도 성남시 분당구 동판교로 91, 앞 대 사거리(백현동, 백현마을4단지)",1,37.3918871,127.1167074,2018.4.1,경기도 성남시 분당구 백현동 545-5번지 백현마을 4단지 앞 대로변(서현로) 사거리,,,,,,,,,,,
"경기도 성남시 분당구 판교역로 75, 판교어린이도서관주변생태공원입구변경전 566동 3호 : 백현동 번지(백현동)",4,37.3868947,127.1061234,2018.4.1,경기도 성남시 분당구 백현동 523번지 판교어린이도서관주변 생태공원 입구(변경전 : 백현동 566-3번지),,,,,,,,,,,
,1,37.386148,127.110229,2018.4.1,경기도 성남시 분당구 백현동 566-3번지 신백현초등학교 정문 입구 (세계로 방면),,,,,,,,,,,
"경기도 성남시 분당구 판교역로 26, 622동 12호 번지(백현동)",1,37.384013,127.1097955,2018.4.1,경기도 성남시 분당구 백현동 576번지 길건너 맞은편 백현야구장쪽 인도변(변경전 : 백현동 622-12번지),,,,,,,,,,,
,1,37.3922954,127.1046585,2018.4.1,경기도 성남시 분당구 백현동 521-2번지 가스공급시설 뒷편 어린이 공원 입구,,,,,,,,,,,
,1,37.3922954,127.1046585,2018.4.1,경기도 성남시 분당구 백현동 521-2번지 낙생대 공원 주차장 앞 (팔각정 입구),,,,,,,,,,,
,1,37.3913744,127.1039774,2018.4.1,경기도 성남시 분당구 백현동 521-4번지 낙생대 공원 출입구 (공연장 앞),,,,,,,,,,,
"경기도 성남시 수정구 수정로 211, (태평동)",1,37.4445515,127.1429994,2018.4.1,경기도 성남시 태평4동 7339-4,,,,,,,,,,,
"경기도 성남시 수정구 남문로 112, 금빛초등학교  후문(태평동)",1,37.4478625,127.1409635,2018.4.1,경기도 성남시 태평4동 7290번지 금빛초등학교 후문,,,,,,,,,,,
"경기도 성남시 수정구 수정로 138, (수진동)",1,37.4417303,127.1354544,2018.4.1,경기도 성남시 수진1동 5,,,,,,,,,,,
"경기도 성남시 수정구 성남대로 1218, (수진동)",1,37.438502,127.1283667,2018.4.1,경기도 성남시 수진2동 3013,,,,,,,,,,,
"경기도 성남시 수정구 제일로 145, (수진동)",1,37.439385,127.132281,2018.4.1,경기도 성남시 수진2동 3399,,,,,,,,,,,
"경기도 성남시 수정구 성남대로 1191, (수진동)",1,37.4360944,127.1280048,2018.4.1,경기도 성남시 수진2동 4612,,,,,,,,,,,
,1,37.433121,127.125751,2018.4.1,경기도 성남시 수정구 수진2동 4760-5 둔전교회 앞,,,,,,,,,,,
"경기도 성남시 수정구 산성대로 439, (단대동)",1,37.4512057,127.1592847,2018.4.1,경기도 성남시 단대동 95-8,,,,,,,,,,,
"경기도 성남시 수정구 수정남로291번길 9, (산성동)",1,37.4546571,127.1502581,2018.4.1,경기도 성남시 산성동 1432,,,,,,,,,,,
"경기도 성남시 수정구 희망로534번길 3, 성남북초등학교  후문(산성동)",1,37.4513984,127.1513257,2018.4.1,경기도 성남시 산성동 2137번지 성남북초등학교 후문,,,,,,,,,,,
"경기도 성남시 수정구 성남대로1518번길 15, 서울국제학교  주변(복정동)",1,37.4657654,127.1290982,2018.4.1,경기도 성남시 복정동 388-14번지 서울국제학교 주변,,,,,,,,,,,
,1,37.422027,127.1077946,2018.4.1,경기도 성남시 시흥동 281-18 국지도23호도로공사앞,,,,,,,,,,,
"경기도 성남시 수정구 대왕판교로 948, 국지도 23호 고등동사무소건너편(시흥동)",1,37.4245826,127.1025229,2018.4.1,경기도 성남시 시흥동 190-1 국지도23호고등동사무소건너편,,,,,,,,,,,
"경기도 성남시 중원구 광명로 124, (성남동)",1,37.4365572,127.1422533,2018.4.1,경기도 성남시 성남동 2610,,,,,,,,,,,
"경기도 성남시 중원구 원터로94번길 2, (성남동)",1,37.4351431,127.1434434,2018.4.1,경기도 성남시 성남동 2878,,,,,,,,,,,
,1,37.4402367,127.1522598,2018.4.1,경기도 성남시 중앙동 3363,,,,,,,,,,,
"경기도 성남시 분당구 동판교로52번길 9-1, 하산중학교  건너편 가로공원 내부(백현동)",1,37.3873465,127.1147288,2018.4.1,경기도 성남시 분당구 백현동 604-8번지 하산중학교 건너편 가로공원 내부,,,,,,,,,,,
"경기도 성남시 분당구 동판교로52번길 9-3, 하산중학교  건너편 가로공원 내부(백현동)",1,37.3873461,127.1148753,2018.4.1,경기도 성남시 분당구 백현동 604-7번지 하산중학교 건너편 가로공원 내부,,,,,,,,,,,
,4,37.385928,127.1091208,2018.4.1,경기도 성남시 분당구 백현동 567번지 901동 길건너 맞은편(변경전 : 백현동 607-1번지),,,,,,,,,,,
"경기도 성남시 분당구 판교역로 48, 변경전:백현동 608동 9호 번지(백현동)",1,37.3850987,127.1086326,2018.4.1,경기도 성남시 분당구 백현동 568-2번지 내부길(변경전 : 백현동 608-9번지),,,,,,,,,,,
,1,37.3844047,127.1089542,2018.4.1,경기도 성남시 분당구 백현동 575-9번지(변경전 : 608-11번지로 되어있었음),,,,,,,,,,,
"경기도 성남시 분당구 판교로 393, 앞(삼평동, 봇들마을2단지이지더원아파트)",2,37.4062829,127.1164218,2018.4.1,경기도 성남시 분당구 삼평동 717-1번지 사송사거리 이지더원 아파트 앞,,,,,,,,,,,
경기도 성남시 분당구 사송사거리,4,37.4062829,127.1164218,2018.4.1,경기도 성남시 분당구 삼평동 718-2번지 사송사거리(이매동 벌말사거리 방향),,,,,,,,,,,
경기도 성남시 분당구 세계로사거리,4,37.3801584,127.091844,2018.4.1,경기도 성남시 분당구 백현동 545-3번지 세계로사거리 경남아너스빌 옆,,,,,,,,,,,
"경기도 성남시 수정구 단대로 30, 단대초등학교  후문(단대동)",1,37.4529819,127.1590602,2018.4.1,경기도 성남시 수정구 단대동 75번지 단대초등학교 후문,,,,,,,,,,,
,1,37.4265679,127.0988803,2018.4.1,경기도 성남시 수정구 고등동 511-6번지 왕남초등학교 부근,,,,,,,,,,,
"경기도 성남시 중원구 금빛로61번길 12, 홍능정육점부근  (금광동)",1,37.4471649,127.1657176,2018.4.1,경기도 성남시 중원구 금광2동 3087번지 홍능정육점 부근,,,,,,,,,,,
,1,37.4345263,127.1791916,2018.4.1,경기도 성남시 중원구 상대원1동 359-3 경기마트 앞 공영주차장부근,,,,,,,,,,,
,1,37.3795051,127.1475416,2018.4.1,경기도 성남시 분당구 서현1동 323-5번지 율동공원 입구,,,,,,,,,,,
,1,37.3769473,127.139211,2018.4.1,경기도 성남시 분당구 서현2동 343-5번지 부근,,,,,,,,,,,
"경기도 성남시 수정구 시민로 165, (신흥동, 샤르망)",1,37.4426714,127.1425564,2018.4.1,경기도 성남시 신흥1동 5180,,,,,,,,,,,
"경기도 성남시 수정구 산성대로 217, (신흥동)",1,37.4386025,127.1418559,2018.4.1,경기도 성남시 신흥1동 6912,,,,,,,,,,,
"경기도 성남시 수정구 산성대로 331, 롯데시네마앞  (신흥동)",1,37.4436918,127.1528171,2018.4.1,경기도 성남시 신흥2동 2463-4 (롯데시네마 앞),,,,,,,,,,,
"경기도 성남시 수정구 산성대로 297, (신흥동)",1,37.4422895,127.1496871,2018.4.1,경기도 성남시 신흥3동 2482,,,,,,,,,,,
"경기도 성남시 수정구 산성대로 285, (신흥동)",1,37.4416293,127.1484809,2018.4.1,경기도 성남시 신흥3동 2495,,,,,,,,,,,
"경기도 성남시 수정구 시민로 144-1, (신흥동)",1,37.441072,127.1440494,2018.4.1,경기도 성남시 신흥3동 3778,,,,,,,,,,,
"경기도 성남시 수정구 산성대로 247, (신흥동)",1,37.4400431,127.1445606,2018.4.1,경기도 성남시 신흥3동 4223-2,,,,,,,,,,,
"경기도 성남시 수정구 성남대로 1278, (태평동)",1,37.443781,127.1273539,2018.4.1,경기도 성남시 태평1동 6111,,,,,,,,,,,
"경기도 성남시 수정구 성남대로 1235, (태평동)",1,37.4400143,127.1273185,2018.4.1,경기도 성남시 태평1동 6973,,,,,,,,,,,
,1,37.4470805,127.1385679,2018.4.1,경기도 성남시 태평2동 288-16,,,,,,,,,,,
"경기도 성남시 수정구 제일로 173, (태평동)",1,37.4418176,127.1311489,2018.4.1,경기도 성남시 태평3동 6416,,,,,,,,,,,
,1,37.3849172,127.1105407,2018.4.1,경기도 성남시 분당구 백현동 571번지 정자목어린이공원(팔각정)앞,,,,,,,,,,,
"경기도 성남시 수정구 수정로 283, 성남신흥초등학교  정문앞(신흥동)",1,37.450552,127.1434845,2018.4.1,경기도 성남시 신흥2동 30번지 성남신흥초등학교 정문앞,,,,,,,,,,,
"경기도 성남시 분당구 판교역로2번길 12, 변경전:백현동 622동 12호 번지(백현동)",1,37.3844215,127.1127747,2018.4.1,경기도 성남시 분당구 백현동 583-1번지(변경전 : 백현동 622-12번지),,,,,,,,,,,
"경기도 성남시 분당구 판교역로 20, 변경전:백현동 608동 11호 번지(백현동)",1,37.3839534,127.1103031,2018.4.1,경기도 성남시 분당구 백현동 576-3번지(변경전 : 백현동 608-11번지),,,,,,,,,,,
경기도 성남시 분당구 내소도로,1,37.3986196,127.0970745,2018.4.1,경기도 성남시 분당구 판교동 518-2번지 E12-1블럭 내 소도로 (낙원중학교 앞),,,,,,,,,,,
경기도 성남시 분당구 정문앞큰삼거리,4,37.398101,127.0965161,2018.4.1,경기도 성남시 분당구 판교동 512-4번지 낙원중학교 정문 앞 큰삼거리(주택지역 입구),,,,,,,,,,,
,1,37.3982826,127.0973663,2018.4.1,경기도 성남시 분당구 판교동 532번지 봄볕어린이 공원,,,,,,,,,,,
,1,37.3981714,127.0978107,2018.4.1,경기도 성남시 분당구 판교동 529-9번지 E12-1블럭 내 어린이 공원 부근,,,,,,,,,,,
,1,37.397328,127.0977564,2018.4.1,경기도 성남시 분당구 판교동 534-13번지 E12-1블럭 보행자 출입구 (체육공원 건너편),,,,,,,,,,,
,1,37.3966195,127.0989487,2018.4.1,경기도 성남시 분당구 판교동 539-12번지 E12-1블럭 내부 (원불교 건너편),,,,,,,,,,,
,1,37.3958482,127.0983982,2018.4.1,경기도 성남시 분당구 판교동 542-8번지 E12-1블럭 내부 (체육공원 입구 반대편),,,,,,,,,,,
,1,37.3995107,127.0979525,2018.4.1,경기도 성남시 분당구 판교동 522-9번지 E12-1블럭 내 자동크린넷 앞 (낙원중학교 방면),,,,,,,,,,,
경기도 성남시 분당구 앞삼거리,5,37.3940696,127.0983747,2018.4.1,경기도 성남시 분당구 판교동 551-1번지 낙생초등학교 앞 삼거리,,,,,,,,,,,
,4,37.3934849,127.0984731,2018.4.1,경기도 성남시 분당구 판교동 554-5번지 낙생초등학교 정문 앞,,,,,,,,,,,
,1,37.3931056,127.0997642,2018.4.1,경기도 성남시 분당구 판교동 557-9번지 E11-1블럭 내 (낙생초등학교 후문방향),,,,,,,,,,,
,1,37.3923123,127.0992791,2018.4.1,경기도 성남시 분당구 판교동 563-8번지 E11-1블럭 내,,,,,,,,,,,
,1,37.3919164,127.0983486,2018.4.1,경기도 성남시 분당구 판교동 562-10번지 E11-1블럭 내 분수공원 건너편,,,,,,,,,,,
,1,37.3906929,127.0994625,2018.4.1,경기도 성남시 분당구 판교동 568-16번지 E10-1블럭 내 자동크린넷 앞,,,,,,,,,,,
,1,37.3901549,127.0997617,2018.4.1,경기도 성남시 분당구 판교동 569-15번지 E10-1블럭 내 자동크린넷 주변,,,,,,,,,,,
,1,37.3901587,127.0991994,2018.4.1,경기도 성남시 분당구 판교동 573번지 너른들어린이 공원 내부,,,,,,,,,,,
경기도 성남시 분당구 내경부고속도로,1,37.3906929,127.0994625,2018.4.1,경기도 성남시 분당구 판교동 568-16번지 E10-1블럭 내 경부고속도로 방향,,,,,,,,,,,
"경기도 성남시 분당구 서판교로 29, 앞 사거리 변(판교동, 판교원마을한림풀에버아파트)",1,37.3888509,127.0932663,2018.4.1,경기도 성남시 분당구 판교동 584-1번지 원마을 9단지 보행자 출입로 앞 사거리 (대로변),,,,,,,,,,,
"경기도 성남시 분당구 판교원로 255, 정문 주출입구 주변(판교동, 판교원마을8단지상록아파트)",1,37.3872406,127.0934378,2018.4.1,경기도 성남시 분당구 판교동 638-5번지 원마을 8단지 정문(주출입구) 주변,,,,,,,,,,,
경기도 성남시 분당구 앞사거리,1,37.3863057,127.0919811,2018.4.1,경기도 성남시 분당구 판교동 638-2번지 F9-1블럭 주출입구 앞 사거리,,,,,,,,,,,
,1,37.4031232,127.0948201,2018.4.1,경기도 성남시 분당구 판교동 508-9번지 E13-1블럭 외곽 소도로변 산불감시카메라 앞,,,,,,,,,,,
"경기도 성남시 분당구 대왕판교로 15, 벌말어린이공원분당 60호 (동원동)",4,37.3449768,127.1011952,2018.4.1,경기도 성남시 분당구 구미1동 51번지 벌말어린이공원(분당60호),,,,,,,,,,,
,1,37.3983459,127.0929332,2018.4.1,경기도 성남시 분당구 판교동 516-13번지 E8-1블럭 내 자동크린넷 앞,,,,,,,,,,,
"경기도 성남시 분당구 서판교로180번길 18-2, 주변  (판교동)",1,37.4022329,127.0949281,2018.4.1,경기도 성남시 분당구 판교동 500번지 판교공원 내 산책로 주변,,,,,,,,,,,
"경기도 성남시 분당구 판교로 50, 106동  옆 판교공원 내 생태공원 입구(판교동, 판교원마을주공휴먼시아1단지)",1,37.4022329,127.0949281,2018.4.1,경기도 성남시 분당구 판교동 500번지 판교원마을 1단지(106동) 옆 판교공원 내 생태공원 입구,,,,,,,,,,,
"경기도 성남시 분당구 서판교로180번길 18-2, 판교홍보관뒤청소년수련시설구름다리앞  (판교동)",1,37.4022329,127.0949281,2018.4.1,경기도 성남시 분당구 판교동 500번지 판교 홍보관 뒤 청소년 수련시설(구름다리) 앞,,,,,,,,,,,
"경기도 성남시 분당구 판교로 50, 108동  옆 판교공원 입구(판교동, 판교원마을주공휴먼시아1단지)",1,37.4022329,127.0949281,2018.4.1,경기도 성남시 분당구 판교동 500번지 판교원마을 1단지(108동) 옆 판교공원 입구,,,,,,,,,,,
,1,37.3917092,127.0893925,2018.4.1,경기도 성남시 분당구 판교동 614-13번지 판교도서관 주차장 입구,,,,,,,,,,,
"경기도 성남시 분당구 판교로 30, 보행자 출입구 앞 저류지(판교동, 판교원마을2단지푸르지오아파트)",1,37.3901177,127.0865641,2018.4.1,경기도 성남시 분당구 판교동 623-1번지 원마을 2단지 보행자 출입구 앞 (저류지),,,,,,,,,,,
,1,37.3890903,127.0900327,2018.4.1,경기도 성남시 분당구 판교동 624-1번지 농협(서판교지점)앞 저류지 입구,,,,,,,,,,,
"경기도 성남시 분당구 판교원로 209, 운중천 구름다리 입구(판교동, 판교원마을진원제비앙아파트)",1,37.3887861,127.090741,2018.4.1,경기도 성남시 분당구 판교동 628-1번지 원마을 6단지 운중천 구름다리 입구,,,,,,,,,,,
경기도 성남시 분당구 내어린이공원/보행자출입로,1,37.3900165,127.0917723,2018.4.1,경기도 성남시 분당구 판교동 596-4번지 F7-1블럭 주택지역 내 어린이공원 / 보행자 출입로 사이,,,,,,,,,,,
,1,37.3983863,127.0932164,2018.4.1,경기도 성남시 분당구 판교동 513-3번지 영운정사 화장실 앞,,,,,,,,,,,
"경기도 성남시 분당구 서판교로 147, 판교  뒷편 체육공원 내(판교동, 판교원마을현대힐스테이트아파트)",1,37.4022329,127.0949281,2018.4.1,경기도 성남시 분당구 판교동 500번지 판교 원마을 11단지 뒷편 체육공원 내,,,,,,,,,,,
,1,37.3927409,127.1003456,2018.4.1,경기도 성남시 분당구 판교동 559-7번지 E11-1블럭 내 서판교 차량 출입구 건너편 (주택지역),,,,,,,,,,,
,1,37.3909771,127.0981206,2018.4.1,경기도 성남시 분당구 판교동 562-12번지 E11-1블럭 내 분수공원 건너편,,,,,,,,,,,
,1,37.3891111,127.1003685,2018.4.1,경기도 성남시 분당구 판교동 581-10번지 E10-1블럭 내 자동크린넷 주변 (운중로 방향),,,,,,,,,,,
경기도 성남시 분당구 앞사거리,1,37.3896021,127.0988265,2018.4.1,경기도 성남시 분당구 판교동 577-5번지 판교동 주민센터 앞 사거리 (E10-1블럭 내),,,,,,,,,,,
경기도 성남시 분당구 사거리,1,37.390889,127.096792,2018.4.1,경기도 성남시 분당구 판교동 898-6번지 성내미터널입구 사거리,,,,,,,,,,,
경기도 성남시 분당구 진입로,1,37.399214,127.096203,2018.4.1,경기도 성남시 분당구 판교동 518-3번지 열병합발전소 진입로 (서판교 진입로),,,,,,,,,,,
"경기도 성남시 분당구 서판교로 29, 피크닉장 내부  후문(판교동, 판교원마을한림풀에버아파트)",1,37.3888459,127.0946394,2018.4.1,경기도 성남시 분당구 판교동 585-1번지 피크닉장 내부 (원마을 9단지 후문),,,,,,,,,,,
"경기도 성남시 분당구 서판교로132번길 26, (판교동)",3,37.3992942,127.098689,2018.4.1,경기도 성남시 분당구 판교동 528-1번지,,,,,,,,,,,
"경기도 성남시 분당구 대왕판교로385번길 7, 관할  (백현동)",1,37.3780077,127.1010057,2018.4.1,경기도 성남시 분당구 백현동 366-7번지(판교동 관할),,,,,,,,,,,
"경기도 성남시 분당구 운중로225번길 37, 판교제 2호 어린이집(판교동)",1,37.3944068,127.0912275,2018.4.1,경기도 성남시 분당구 판교동 553번지(판교제2어린이집),,,,,,,,,,,
"경기도 성남시 분당구 판교원로 200, 시립판교어린이집  (판교동)",1,37.3859299,127.0882133,2018.4.1,경기도 성남시 분당구 판교동 632번지(시립판교어린이집),,,,,,,,,,,
,4,37.3950009,127.0992552,2018.4.1,경기도 성남시 분당구 판교동 547 미르어린이공원,,,,,,,,,,,
,4,37.3982826,127.0973663,2018.4.1,경기도 성남시 분당구 판교동 532 봄볕어린이공원,,,,,,,,,,,
,3,37.3868705,127.1002632,2018.4.1,경기도 성남시 분당구 판교동 647 낙생어린이공원,,,,,,,,,,,
,3,37.3766914,127.1246814,2018.4.1,경기도 성남시 분당구 판교동 508-7번지,,,,,,,,,,,
,1,37.3983863,127.0932164,2018.4.1,경기도 성남시 분당구 판교동 513-3번지 영운정사 입구,,,,,,,,,,,
,1,37.4021932,127.1166321,2018.4.1,경기도 성남시 분당구 삼평동 724-1번지 삼평유치원 앞,,,,,,,,,,,
,3,37.4017696,127.1149373,2018.4.1,경기도 성남시 분당구 삼평동 722-4번지 이황초등학교 후문 앞(보행자출입구),,,,,,,,,,,
,1,37.3995285,127.1150416,2018.4.1,경기도 성남시 분당구 삼평동 731번지 삼평어린이공원 내부,,,,,,,,,,,
"경기도 성남시 분당구 동판교로 212, 건너편 봇들어린이공원 내부(삼평동, 봇들마을주공6단지)",1,37.3995763,127.1183055,2018.4.1,경기도 성남시 분당구 삼평동 729번지 봇들마을 6단지 건너편 봇들어린이공원 내부,,,,,,,,,,,
,1,37.4015621,127.1076887,2018.4.1,경기도 성남시 분당구 삼평동 680-1번지 NHN/네오위지 빌딩 앞 공원 내부,,,,,,,,,,,
,1,37.4037281,127.1109663,2018.4.1,경기도 성남시 분당구 삼평동 689-1번지 LIG 넥스윈 빌딩 옆 폭포공원 입구,,,,,,,,,,,
"경기도 성남시 분당구 판교역로 203, ㈜엔씨소프트빌딩  옆 판교테크노파크공원 공공화장실 앞(삼평동)",5,37.3987963,127.1081982,2018.4.1,경기도 성남시 분당구 삼평동 669번지 ㈜엔씨소프트 빌딩 옆 판교테크노파크공원(공공화장실 앞),,,,,,,,,,,
경기도 성남시 분당구 사거리,1,37.3998419,127.1097329,2018.4.1,경기도 성남시 분당구 삼평동 667-7번지 ㈜엔씨소프트 빌딩 옆 저류지 사거리,,,,,,,,,,,
"경기도 성남시 분당구 판교로 185, 내부역사공원앞 E13동  (판교동)",1,37.4006362,127.0950818,2018.4.1,경기도 성남시 분당구 판교동 498번지 E13-1블럭 내부 역사공원 앞,,,,,,,,,,,
,1,37.4051963,127.0986731,2018.4.1,경기도 성남시 분당구 삼평동 614번지 빛나래어린이 공원 내부,,,,,,,,,,,
,1,37.4041385,127.1014047,2018.4.1,경기도 성남시 분당구 삼평동 620번지 우주어린이공원 내부,,,,,,,,,,,
,1,37.4016245,127.1021625,2018.4.1,경기도 성남시 분당구 삼평동 626번지 환상어린이공원 내부,,,,,,,,,,,
,1,37.4004635,127.1006084,2018.4.1,경기도 성남시 분당구 삼평동 609-3번지 판교벤쳐벨리㈜ 빌딩 건너편(고속도로 방향) 인도,,,,,,,,,,,
"경기도 성남시 분당구 대왕판교로 609, 화랑공원내공연장앞  (삼평동)",1,37.3972616,127.105877,2018.4.1,경기도 성남시 분당구 삼평동 639번지 화랑공원 내 공연장 앞,,,,,,,,,,,
경기도 성남시 분당구 산책로,1,37.4084987,127.1169442,2018.4.1,경기도 성남시 분당구 삼평동 717-2번지 송현공원 내부 산책로 입구,,,,,,,,,,,
"경기도 성남시 분당구 동판교로 275, 사송고 앞 삼거리(삼평동, 봇들마을1단지풍성신미주아파트)",4,37.4048932,127.1156978,2018.4.1,경기도 성남시 분당구 삼평동 709-1번지 사송고 앞 삼거리 (봇들마을 1단지 보행자도로),,,,,,,,,,,
경기도 성남시 분당구 정문앞사거리,3,37.4047677,127.1166048,2018.4.1,경기도 성남시 분당구 삼평동 710-1번지 송현초등학교 정문 앞 사거리(대로변),,,,,,,,,,,
"경기도 성남시 중원구 제일로 55, (성남동)",1,37.4318133,127.1356035,2018.4.1,경기도 성남시 중원구 성남동 3758,,,,,,,,,,,
경기도 성남시 분당구 내보행자출입로,1,37.390889,127.096792,2018.4.1,경기도 성남시 분당구 판교동 515-16번지 E8-1블럭 내 보행자 출입로 앞 사거리,,,,,,,,,,,
,1,37.3957256,127.1176881,2018.4.1,경기도 성남시 삼평동 139-1,,,,,,,,,,,
,1,37.3901328,127.0892993,2018.4.1,경기도 성남시 분당구 판교동 621-8번지 F6-1블럭 주택지역 내 음식점(매운세상) 옆,,,,,,,,,,,
,1,37.3903808,127.0913864,2018.4.1,경기도 성남시 분당구 판교동 595-3번지 F7-1블럭 주택지역 내 음식점(남원추어탕) 옆,,,,,,,,,,,
"경기도 성남시 분당구 야탑로139번길 11, (야탑동)",1,37.410757,127.134232,2018.4.1,경기도 성남시 분당구 야탑3동 322-1번지,,,,,,,,,,,
,1,37.3898799,127.0914888,2018.4.1,경기도 성남시 분당구 판교동 597번지 너울어린이공원 내부,,,,,,,,,,,
,1,37.3894672,127.091694,2018.4.1,경기도 성남시 분당구 판교동 589-1번지 F7-1블럭 주택지역과 교회 사이 구름다리 앞,,,,,,,,,,,
경기도 성남시 분당구 사거리,1,37.3900836,127.0931421,2018.4.1,경기도 성남시 분당구 판교동 605-9번지 F7-1블럭 주택지역 내 주출입구 사거리,,,,,,,,,,,
,1,37.3892742,127.0934163,2018.4.1,경기도 성남시 분당구 판교동 586-8번지 F7-1블럭 주택지역 내 상가(유기농산물 판매점) 앞,,,,,,,,,,,
경기도 성남시 분당구 앞삼거리,4,37.3873913,127.0909846,2018.4.1,경기도 성남시 분당구 판교동 636-1번지 판교초등학교 앞 삼거리,,,,,,,,,,,
,5,37.3860811,127.1000703,2018.4.1,경기도 성남시 분당구 판교동 647-2번지 낙생고등학교 옆 휴계공원 입구,,,,,,,,,,,
"경기도 성남시 분당구 판교원로286번길 3, 주택 E9동  지역 내 주출입구(판교동)",1,37.386469,127.0978334,2018.4.1,경기도 성남시 분당구 판교동 658번지 E9-1블럭 주택지역 내 주출입구,,,,,,,,,,,
,1,37.4062829,127.1164218,2018.4.1,경기도 성남시 삼평동 616-2번지 만도중앙연구소옆,,,,,,,,,,,
"경기도 성남시 수정구 수정남로132번길 13-1, (신흥동)",1,37.4419576,127.1425442,2018.4.1,경기도 성남시 수정구 신흥1동 5131,,,,,,,,,,,
"경기도 성남시 수정구 수정남로98번길 15, (신흥동)",1,37.4407304,127.1391996,2018.4.1,경기도 성남시 수정구 신흥1동 6154,,,,,,,,,,,
"경기도 성남시 수정구 수정로274번길 5, (신흥동)",1,37.4489522,127.1463421,2018.4.1,경기도 성남시 수정구 신흥2동 952-26,,,,,,,,,,,
"경기도 성남시 수정구 수정로252번길 10-1, (신흥동)",1,37.4468743,127.1462199,2018.4.1,경기도 성남시 수정구 신흥2동 1811,,,,,,,,,,,
"경기도 성남시 수정구 수정로 218, (신흥동)",1,37.4443074,127.1441357,2018.4.1,경기도 성남시 수정구 신흥3동 3435,,,,,,,,,,,
"경기도 성남시 수정구 수정로57번길 5, (태평동)",1,37.4399787,127.1267641,2018.4.1,경기도 성남시 수정구 태평1동 6953,,,,,,,,,,,
"경기도 성남시 수정구 남문로94번길 12, (태평동)",1,37.4459171,127.1373715,2018.4.1,경기도 성남시 수정구 태평2동 3295-3,,,,,,,,,,,
"경기도 성남시 수정구 탄리로131번길 15, (태평동)",1,37.4467982,127.1320531,2018.4.1,경기도 성남시 수정구 태평3동 4010,,,,,,,,,,,
"경기도 성남시 수정구 수정남로48번길 26, (수진동)",1,37.4382681,127.1339427,2018.4.1,경기도 성남시 수정구 수진1동 1222,,,,,,,,,,,
"경기도 성남시 수정구 수정남로30번길 4, (수진동)",1,37.4395984,127.1312808,2018.4.1,경기도 성남시 수정구 수진2동 3375,,,,,,,,,,,
"경기도 성남시 수정구 수정남로335번길 7, (산성동)",1,37.4577209,127.1539218,2018.4.1,경기도 성남시 수정구 산성동 219,,,,,,,,,,,
"경기도 성남시 수정구 수정남로289번길 8-1, (산성동)",1,37.4545757,127.1503392,2018.4.1,경기도 성남시 수정구 산성동 1436,,,,,,,,,,,
"경기도 성남시 분당구 판교로255번길 9-22, CITY옆 W동  우림(삼평동)",1,37.4038624,127.1000178,2018.4.1,경기도 성남시 삼평동 618번지 우림W-CITY 옆,,,,,,,,,,,
"경기도 성남시 수정구 양지로27번길 7, (양지동)",1,37.4575302,127.1615593,2018.4.1,경기도 성남시 수정구 양지동 617,,,,,,,,양지동,190,,
,1,37.4265081,127.1042851,2018.4.1,경기도 성남시 수정구 시흥동 169-3(시흥2교 주변),,,,,,,,,,,
"경기도 성남시 수정구 복정안골로 10, (복정동)",1,37.4642057,127.1364617,2018.4.1,경기도 성남시 수정구 복정동 185,,,,,,,,,,,
"경기도 성남시 분당구 대왕판교로 609, 화랑공원내메인광장내부  (삼평동)",1,37.3972616,127.105877,2018.4.1,경기도 성남시 분당구 삼평동 639번지 화랑공원 내 메인광장 내부,,,,,,,,,,,
"경기도 성남시 분당구 대왕판교로 609, 크린타워  화랑공원 입구(삼평동)",5,37.3972616,127.105877,2018.4.1,경기도 성남시 분당구 삼평동 639번지 화랑공원 입구 (크린타워 앞 사거리),,,,,,,,,,,
,1,37.4075845,127.1155938,2018.4.1,경기도 성남시 분당구 삼평동 717-1번지 송현공원 앞 출입구 (대로변),,,,,,,,,,,
"경기도 성남시 분당구 동판교로 156, 앞 저류지 입구 대교(삼평동, 봇들마을9단지금호어울림아파트)",1,37.3975462,127.1170355,2018.4.1,경기도 성남시 분당구 삼평동 745-1번지 봇들마을 9단지 앞 저류지 입구(대교),,,,,,,,,,,
,1,37.3972751,127.1166517,2018.4.1,경기도 성남시 분당구 삼평동 738-1번지 봇들마을 단지 보행자 출입구 앞,,,,,,,,,,,
"경기도 성남시 분당구 동판교로 268, 삼평어린이집  (삼평동)",1,37.4060884,127.115869,2018.4.1,경기도 성남시 분당구 삼평동 711번지(삼평어린이집),,,,,,,,,,,
"경기도 성남시 분당구 동판교로 258, 송현초등학교  (삼평동)",3,37.4052438,127.1163704,2018.4.1,경기도 성남시 분당구 삼평동 710번지(송현초등학교),,,,,,,,,,,
,4,37.4045517,127.1151067,2018.4.1,경기도 성남시 분당구 삼평동 707 송현어린이공원,,,,,,,,,,,
,4,37.3995763,127.1183055,2018.4.1,경기도 성남시 분당구 삼평동 729 봇들어린이공원,,,,,,,,,,,
,4,37.4016245,127.1021625,2018.4.1,경기도 성남시 분당구 삼평동 626 환상어린이공원,,,,,,,,,,,
,3,37.3766914,127.1246814,2018.4.1,경기도 성남시 분당구 삼평동 704-3번지,,,,,,,,,,,
"경기도 성남시 분당구 대왕판교로606번길 45, 맞은편변경전:백현동 655동 655호 / 번지 1번지(삼평동)",1,37.3969854,127.1120954,2018.4.1,경기도 성남시 분당구 삼평동 653번지 사거리 / 655번지 맞은편  (변경전 : 백현동 655-1번지),,,,,,,,,,,
경기도 성남시 분당구 진입로,1,37.3931543,127.1082069,2018.4.1,경기도 성남시 분당구 백현동 530-1번지 알파돔시티 내 판교IC 진입로 아래,,,,,,,,,,,
,1,37.3999225,127.0973841,2018.4.1,경기도 성남시 분당구 판교동 510-6번지 E12-1블럭 내부 (판교로 방향),,,,,,,,,,,
"경기도 성남시 분당구 동판교로177번길 25, 741동 1호 번지(삼평동, 판교호반써밋플레이스)",1,37.3980764,127.1132541,2018.4.1,경기도 성남시 분당구 삼평동 740번지 봇들교사거리 인도변(변경전 : 백현동 741-1번지),,,,,,,,,,,
경기도 성남시 분당구 사거리,5,37.396116,127.1168643,2018.4.1,경기도 성남시 분당구 삼평동 743-1번지 보평초교사거리 인도(변경전 : 백현동 743-2번지),,,,,,,,,,,
"경기도 성남시 분당구 판교역로 109, 낙생 지하층  차도(백현동)",4,37.391961,127.109651,2018.4.1,경기도 성남시 분당구 백현동 529번지(낙생지하차도),,,,,,,,,,,
경기도 성남시 분당구 동안사거리,1,37.3959881,127.1094882,2018.4.1,경기도 성남시 분당구 백현동 531-1번지 동안사거리 인도변(변경전 : 백현동 641-2번지),,,,,,,,,,,
,1,37.3947336,127.107977,2018.4.1,경기도 성남시 분당구 백현동 531-2번지 알파돔시티 내 나들이공원 입구(서편),,,,,,,,,,,
"경기도 성남시 분당구 안양판교로 1221, (판교동)",4,37.381831,127.101901,2018.4.1,경기도 성남시 분당구 판교동 653,,,,,,,,,,,
,4,37.362201,127.058811,2018.4.1,경기도 성남시 분당구 대장동 577-4번지,,,,,,,,대장동,12,,
경기도 성남시 수정구 성남대로,4,37.4673858,127.1266884,2018.4.1,경기도 성남시 수정구 복정동 264-14번지 복정사거리(성남대로),,,,,,,,,,,
"경기도 성남시 수정구 수정로456번길 67-1, 부근-남한산성입구 변전소(산성동, 현대빌라)",3,37.4560829,127.1552006,2018.4.1,경기도 성남시 수정구 산성동 492번지 창곡중학교부근-남한산성입구 변전소 부근(수정로),,,,,,,,,,,
경기도 성남시 수정구 경부고속도로,1,37.4305929,127.0720837,2018.4.1,경기도 성남시 수정구 상적동 213-1번지 경부고속도로 부근(청계로),,,,,,,,,,,
,2,37.422643,127.187022,2018.4.1,경기도 성남시 중원구 갈현동 83번지 갈마터널입구(3번국도),,,,,,,,,,,
경기도 성남시 중원구 성남대로,1,37.4284282,127.1283863,2018.4.1,경기도 성남시 중원구 성남동 1874번지 모란사거리 성남IC진입로(성남대로),,,,,,,,,,,
경기도 성남시 중원구 돌마로,3,37.4278915,127.1380179,2018.4.1,경기도 성남시 중원구 하대원동 430번지 혜성주유소사거리(돌마로),,,,,,,,,,,
경기도 성남시 중원구 대원로,2,37.4388869,127.1582892,2018.4.1,경기도 성남시 중원구 상대원2동 644-1번지 대원터널입구(대원로),,,,,,,,,,,
,1,37.4312689,127.1538818,2018.4.1,"경기도 성남시 중원구 하대원동 208-4번지 공원터널입구(공원로, 하대원동)",,,,,,,,,,,
,1,37.4409076,127.1521222,2018.4.1,"경기도 성남시 중원구 중앙동 2531번지 공원터널입구(공원로, 중동)",,,,,,,,,,,
"경기도 성남시 분당구 탄천로 257, 분당서비스센터  GM대우(야탑동)",3,37.4144584,127.1193154,2018.4.1,경기도 성남시 분당구 야탑1동 403번지 GM대우 분당서비스센타 옆(분당수서로),,,,,,,,,,,
경기도 성남시 분당구 성남대로,4,37.337576,127.1087199,2018.4.1,경기도 성남시 분당구 구미동 174-3번지 벽산오거리(성남대로),,,,,,,,,,,
경기도 성남시 분당구 태재고개서현로,3,37.3681481,127.1491416,2018.4.1,경기도 성남시 분당구 분당동 199-1번지 태재고개(서현로),,,,,,,,,,,
,3,37.3791376,127.1312115,2018.4.1,경기도 성남시 분당구 서현1동 94-1번지 분당어린이공원(분당32호),,,,,,,,,,,
,5,37.382903,127.1260873,2018.4.1,경기도 성남시 분당구 서현1동 서현역 AK플라자 앞 자전거보관대,,,,,,,,,,,
,3,37.3818659,127.1517576,2018.4.1,경기도 성남시 분당구 서현1동 324번지 소공원어린이공원,,,,,,,,,,,
"경기도 성남시 분당구 문정로144번길 9, 점골어린이공원  (율동)",4,37.3829142,127.1520303,2018.4.1,경기도 성남시 분당구 서현1동 332번지 점골어린이공원,,,,,,,,,,,
,1,37.357431,127.123661,2018.4.1,경기도 성남시 분당구 정자3동 252번지 정자공원 내부,,,,,,,,,,,
"경기도 성남시 분당구 불곡북로25번길 15, (정자동)",3,37.360571,127.126101,2018.4.1,경기도 성남시 분당구 정자3동 244-8번지,,,,,,,,,,,
"경기도 성남시 분당구 불곡남로7번길 7, (정자동)",5,37.359151,127.123621,2018.4.1,경기도 성남시 분당구 정자3동 224-6번지,,,,,,,,,,,
,3,37.3839525,127.1503154,2018.4.1,경기도 성남시 분당구 서현1동 312번지 율동버스정류장 부근,,,,,,,,,,,
,3,37.3833727,127.1365873,2018.4.1,경기도 성남시 분당구 서현1동 135-3번지 안집식당 부근,,,,,,,,,,,
"경기도 성남시 분당구 불정로 195, 지하층  불정 테니스장앞(정자동, 정든마을우성6차아파트)",2,37.3615788,127.1165988,2018.4.1,경기도 성남시 분당구 정자3동 198번지 불정지하보도(우성6단지 테니스장앞),,,,,,,,,,,
,2,37.3822736,127.1516663,2018.4.1,경기도 성남시 분당구 서현1동 323-5번지 율동공원 입구,,,,,,,,,,,
"경기도 성남시 분당구 성남대로 34, 출구오랜지약국앞 3호 오리역번(구미동)",1,37.3388389,127.1093821,2018.4.1,경기도 성남시 구미동 185-3 오리역3번출구 오랜지약국앞,,,,,,,,,,,
"경기도 성남시 분당구 미금로22번길 25, 구미초등학교  주변(구미동)",1,37.3377319,127.1182957,2018.4.1,경기도 성남시 구미동 215번지 구미초등학교 주변,,,,,,,,,,,
"경기도 성남시 분당구 무지개로 129, 불곡초등학교  주변(구미동)",1,37.340871,127.119241,2018.4.1,경기도 성남시 구미동 241번지 불곡초등학교 주변,,,,,,,,,,,
"경기도 성남시 분당구 돌마로 52, MD프라자 6호 미금역 번출구(구미동)",1,37.3496448,127.1077375,2018.4.1,경기도 성남시 구미1동 8-2 미금역 6번출구 MD프라자,,,,,,,,,,,
"경기도 성남시 분당구 돌마로 80, 현대벤처빌 3호 미금역 번출구(구미동)",1,37.349871,127.110151,2018.4.1,경기도 성남시 구미1동 24-2 미금역 3번출구 현대벤처빌,,,,,,,,,,,
"경기도 성남시 분당구 운중로 128, 운중주민센터  (운중동)",1,37.3912755,127.0773467,2018.4.1,경기도 성남시 운중동 944번지 운중주민센터사거리,,,,,,,,,,,
,1,37.3894749,127.0790202,2018.4.1,경기도 성남시 운중동 927-1번지 산운초등학교,,,,,,,,,,,
경기도 성남시 분당구 보행자출입로,1,37.3909401,127.0851522,2018.4.1,경기도 성남시 분당구 운중동 1016-8번지 E5-1블럭 주택지역 내 (큰 사거리 보행자 출입로 입구),,,,,,,,,,,
,1,37.3896333,127.084224,2018.4.1,경기도 성남시 분당구 운중동 1017-4번지 F5-1블럭 주택지역 내 주출입구 앞,,,,,,,,,,,
,1,37.3899469,127.0827665,2018.4.1,경기도 성남시 분당구 운중동 1028-4번지 F5-1블럭 주택지역 내 운중천 운중천육교 앞,,,,,,,,,,,
,1,37.3941795,127.081067,2018.4.1,경기도 성남시 분당구 운중동 991-1번지 배수지 입구 (산책로 입구),,,,,,,,,,,
,1,37.3942939,127.0784543,2018.4.1,경기도 성남시 분당구 운중동 986-18번지 E4-1블럭 주택지역 내 판교공원 앞 (도로변),,,,,,,,,,,
,1,37.3911911,127.084791,2018.4.1,경기도 성남시 분당구 운중동 1014-8번지 D3-1A(아펠바움) 앞 도로변,,,,,,,,,,,
,1,37.3911911,127.084791,2018.4.1,경기도 성남시 분당구 운중동 1014-8번지 D3-1B(아펠바움) 앞 도로변,,,,,,,,,,,
,5,37.3924754,127.0730157,2018.4.1,경기도 성남시 분당구 운중동 956-3번지 하산고등학교 옆 보행자 출입구,,,,,,,,,,,
,1,37.3929365,127.076601,2018.4.1,경기도 성남시 분당구 운중동 981-8번지 F1-1블럭 내 음식점(돈데이) 앞,,,,,,,,,,,
,1,37.3925646,127.0777479,2018.4.1,경기도 성남시 분당구 운중동 975-4번지 F1-1블럭 내 주차장 부지 앞,,,,,,,,,,,
,1,37.3929713,127.0786096,2018.4.1,경기도 성남시 분당구 운중동 971-7번지 F1-1블럭 내 24시간 편의점 앞 (보행자 출입구 앞),,,,,,,,,,,
,1,37.3919799,127.0772005,2018.4.1,경기도 성남시 분당구 운중동 962-1번지 F1-1블럭 내 보행자 출입구 시작점 앞 (빌딩 앞),,,,,,,,,,,
,1,37.3920583,127.0789795,2018.4.1,경기도 성남시 분당구 운중동 968-1번지 F1-1블럭 내 근린상업단지 앞(967번지),,,,,,,,,,,
"경기도 성남시 분당구 산운로208번길 37-1, 주택 E5동  지역 내(운중동)",1,37.3917718,127.0804746,2018.4.1,경기도 성남시 분당구 운중동 997-8번지 E5-2블럭 주택지역 내,,,,,,,,,,,
,1,37.3927626,127.0816393,2018.4.1,경기도 성남시 분당구 운중동 1001-14번지 E5-2블럭 주택지역 내 보행자 출입구 앞,,,,,,,,,,,
경기도 성남시 분당구 진입로,1,37.3917731,127.0752031,2018.4.1,경기도 성남시 분당구 운중동 898-6번지  E5-2블럭 주택지역 진입로 입구 (구름다리 앞),,,,,,,,,,,
,5,37.3917731,127.0752031,2018.4.1,경기도 성남시 분당구 운중동 898-6번지 운중중학교 정문 앞 (버스 정류장 옆),,,,,,,,,,,
"경기도 성남시 분당구 판교원로81번길 9, 운중공원내  (운중동)",1,37.3903045,127.0732102,2018.4.1,경기도 성남시 분당구 운중동 953번지 운중공원 내,,,,,,,,,,,
"경기도 성남시 분당구 내정로174번길 42, 돌고래재래시장  앞(수내동)",1,37.3708946,127.1223499,2018.4.1,경기도 성남시 수내2동 53 돌고래재래시장앞,,,,,,,,,,,
"경기도 성남시 분당구 백현로243번길 12, 수내초등학교  주변(수내동)",1,37.3676788,127.1244548,2018.4.1,경기도 성남시 수내3동 81번지 수내초등학교 주변,,,,,,,,,,,
"경기도 성남시 분당구 내정로17번길 2, 한솔프라자  앞(정자동)",1,37.3618678,127.1145453,2018.4.1,경기도 성남시 정자동 127-3 한솔프라자앞,,,,,,,,,,,
"경기도 성남시 분당구 황새울로 74, 신기초등학교  주변(정자동)",1,37.366617,127.110435,2018.4.1,경기도 성남시 정자동 89번지 신기초등학교 주변,,,,,,,,,,,
"경기도 성남시 분당구 성남대로 385, 두산위브파빌리온앞  (정자동)",1,37.3716165,127.1071847,2018.4.1,경기도 성남시 정자1동 15-2 두산위브파빌리온앞,,,,,,,,,,,
,1,37.3614515,127.111435,2018.4.1,경기도 성남시 정자1동 18-6 정자역프라자앞,,,,,,,,,,,
"경기도 성남시 분당구 성남대로331번길 3-3, 젤존타워  Ⅱ앞(정자동)",1,37.3652971,127.1076933,2018.4.1,경기도 성남시 정자1동 156-1 젤존타워 Ⅱ앞,,,,,,,,,,,
"경기도 성남시 분당구 성남대로343번길 5, 정자역환승주차장  (정자동)",1,37.3661335,127.1075893,2018.4.1,경기도 성남시 정자1동 26 정자역 환승주차장,,,,,,,,,,,
"경기도 성남시 분당구 정자일로 121, 앞(정자동, 분당더샵스타파크)",1,37.360341,127.105921,2018.4.1,경기도 성남시 분당구 정자1동 174-1 스타파크 앞,,,,,,,,,,,
"경기도 성남시 분당구 서현로 204, 엘지에클라트Ⅱ앞  (서현동)",1,37.3870834,127.1251973,2018.4.1,경기도 성남시 서현1동 245-4 엘지에클라트 Ⅱ앞,,,,,,,,,,,
"경기도 성남시 분당구 새마을로165번길 36, 공항버스정류장  (율동)",1,37.384931,127.123249,2018.4.1,경기도 성남시 서현1동 264 공항버스 정류장,,,,,,,,,,,
"경기도 성남시 분당구 황새울로359번길 11, 풍림아이원입구  (서현동)",1,37.3879773,127.1232627,2018.4.1,경기도 성남시 서현1동 254-1 풍림아이원입구,,,,,,,,,,,
"경기도 성남시 분당구 중앙공원로39번길 12, 서현초등학교  주변(서현동)",1,37.3825402,127.1285856,2018.4.1,경기도 성남시 서현1동 87-1번지 서현초등학교 주변,,,,,,,,,,,
"경기도 성남시 분당구 돌마로 478, 효자촌프라자  (서현동)",1,37.3770885,127.133182,2018.4.1,경기도 성남시 서현2동 298-3 효자촌 프라자,,,,,,,,,,,
"경기도 성남시 분당구 불정로406번길 17, 양영초등학교  주변(서현동)",1,37.3743945,127.1393481,2018.4.1,경기도 성남시 서현2동 319번지 양영초등학교 주변,,,,,,,,,,,
"경기도 성남시 분당구 양현로 146, 이매초등학교  정문(이매동)",1,37.3971342,127.1260812,2018.4.1,경기도 성남시 이매1동 112번지 이매초등학교 정문,,,,,,,,,,,
,1,37.3904143,127.0764796,2018.4.1,경기도 성남시 분당구 운중동 929-4번지 F2-1블럭 주택지역 내 저류지 앞,,,,,,,,,,,
,1,37.3951687,127.0775753,2018.4.1,경기도 성남시 운중동 1036-1 산운초등학교 후문,,,,,,,,,,,
,1,37.3951687,127.0775753,2018.4.1,경기도 성남시 운중동 892-9번지 E2-1블럭 내 운중초등학교 정면,,,,,,,,,,,
"경기도 성남시 분당구 운중로225번길 37, 판교도서관앞  (판교동)",1,37.3920026,127.0902968,2018.4.1,경기도 성남시 판교동 553번지 판교도서관앞,,,,,,,,,,,
"경기도 성남시 분당구 판교로 185, 우측  (판교동)",1,37.3897387,127.1017312,2018.4.1,경기도 성남시 판교동 498번지 성내미사거리 우측,,,,,,,,,,,
경기도 성남시 분당구 성내미사거리,1,37.3897387,127.1017312,2018.4.1,경기도 성남시 판교동 511-1번지 성내미사거리 우측,,,,,,,,,,,
,1,37.3897387,127.1017312,2018.4.1,경기도 성남시 판교동 650-1번지 낙생고건너편,,,,,,,,,,,
경기도 성남시 분당구 동안교삼거리,1,37.3801584,127.091844,2018.4.1,경기도 성남시 백현동 532번지 동안교삼거리-우측,,,,,,,,,,,
"경기도 성남시 분당구 판교역로 145, (백현동, 판교알파리움2단지)",1,37.3801584,127.091844,2018.4.1,경기도 성남시 백현동 530번지 환승주차장삼거리-하행,,,,,,,,,,,
,1,37.3771016,127.1020378,2018.4.1,경기도 성남시 백현동 472-270번지 국지도23호KIS건너편,,,,,,,,,,,
"경기도 성남시 분당구 판교로 375, (삼평동)",1,37.4062829,127.1164218,2018.4.1,경기도 성남시 삼평동 708번지 사송사거리-상,,,,,,,,,,,
"경기도 성남시 분당구 동판교로 226, 앞(삼평동, 봇들마을4단지주공뜨란채아파트)",1,37.406029,127.107267,2018.4.1,경기도 성남시 삼평동 718번지 봇들마을 4단지 앞,,,,,,,,,,,
"경기도 성남시 분당구 판교역로192번길 16, 좌측  (삼평동)",1,37.4062829,127.1164218,2018.4.1,경기도 성남시 삼평동 662번지 봇들교사거리좌측,,,,,,,,,,,
,1,37.3911133,127.0776062,2018.4.1,경기도 성남시 분당구 운중동 938-1번지 F2-1블럭 주택지역 내 국민은행(서판교지점) 뒷편,,,,,,,,,,,
,1,37.3911133,127.0776062,2018.4.1,경기도 성남시 분당구 운중동 938-1번지 우체국(서판교지점) 앞,,,,,,,,,,,
,1,37.3910256,127.0796148,2018.4.1,경기도 성남시 분당구 운중동 939-1번지 F4-1블럭 주택지역 내 근린공원 앞,,,,,,,,,,,
"경기도 성남시 분당구 운중로166번길 4, 출입구 F4동  주택지역(운중동)",1,37.3910701,127.0813591,2018.4.1,경기도 성남시 분당구 운중동 1019-9번지 F4-1블럭 주택지역 출입구 앞 사거리,,,,,,,,,,,
,1,37.3917731,127.0752031,2018.4.1,경기도 성남시 분당구 운중동 898-6번지 국민은행(서판교지점) 앞 대로변,,,,,,,,,,,
,3,37.3898868,127.0780688,2018.4.1,경기도 성남시 분당구 운중동 927-1번지 산운초등학교 후문 앞,,,,,,,,,,,
경기도 성남시 분당구 앞보행자통로,1,37.3898389,127.079771,2018.4.1,경기도 성남시 분당구 운중동 1036-11번지 E6-1블럭 내부 산운초등학교 앞 보행자 통로,,,,,,,,,,,
,1,37.3900476,127.0820221,2018.4.1,경기도 성남시 분당구 운중동 1027-5번지 F5-1블럭 주택지역 내 운중천변 앞,,,,,,,,,,,
,4,37.3894973,127.0796243,2018.4.1,경기도 성남시 분당구 운중동 927-2번지 산운초등학교 정문 옆,,,,,,,,,,,
,1,37.3891889,127.0808987,2018.4.1,경기도 성남시 분당구 운중동 1040-4번지 E6-1블럭 내 쓰레기 투입구 앞,,,,,,,,,,,
,1,37.389276,127.0813914,2018.4.1,경기도 성남시 분당구 운중동 1041번지 E6-1블럭 주차장 용지 앞,,,,,,,,,,,
"경기도 성남시 분당구 판교원로82번길 30, 1305동  앞 수도용지 공원 내부(운중동, 산운마을태영13단지)",1,37.3876726,127.071421,2018.4.1,경기도 성남시 분당구 운중동 920번지 산운마을 13단지(1305동)앞 수도용지(공원) 내부,,,,,,,,,,,
"경기도 성남시 분당구 판교원로82번길 30, 1303동  앞 수도용지 공원 내부(운중동, 산운마을태영13단지)",1,37.3877739,127.0729632,2018.4.1,경기도 성남시 분당구 운중동 919-1번지 산운마을 13단지(1303동)앞 수도용지(공원) 내부,,,,,,,,,,,
,1,37.3911278,127.0671336,2018.4.1,경기도 성남시 분당구 운중동 900번지 물빛어린이공원 내,,,,,,,,,,,
"경기도 성남시 분당구 운중로14번길 5-13, 내부보행자출입구 E2동  구름다리 앞(운중동)",1,37.3908137,127.0659806,2018.4.1,경기도 성남시 분당구 운중동 904-9번지 E2-1블럭 내부 보행자 출입구(구름다리) 앞,,,,,,,,,,,
경기도 성남시 분당구 낙생로,1,37.3898516,127.0671207,2018.4.1,경기도 성남시 분당구 운중동 911-20번지 E2-1블럭 내 보행자출입구 낙생로 방향,,,,,,,,,,,
"경기도 성남시 중원구 금상로 56, (상대원동)",1,37.4400296,127.1625592,2018.4.1,경기도 성남시 상대원3동 2339,,,,,,,,,,,
"경기도 성남시 중원구 제일로 21, (하대원동)",1,37.4289732,127.1372169,2018.4.1,경기도 성남시 하대원동 110-8,,,,,,,,,,,
"경기도 성남시 중원구 둔촌대로 352, (하대원동)",1,37.4313193,127.1572778,2018.4.1,경기도 성남시 하대원동 235-2,,,,,,,,,,,
"경기도 성남시 중원구 둔촌대로 300, (하대원동, 아튼빌)",1,37.4288316,127.1520144,2018.4.1,경기도 성남시 하대원동 249,,,,,,,,,,,
"경기도 성남시 중원구 도촌남로 33, 세일프라자  앞(도촌동)",1,37.414528,127.1511307,2018.4.1,경기도 성남시 도촌동 567 (세일프라자 앞),,,,,,,,도촌동,46,,
